No,PROYECTO,CATEGORIA DE DEPARTAMENTO,CATEGORIA DE MUNICIPIO,REGION,CÓDIGO DANE DEL DEPARTAMENTO,DEPARTAMENTO,CÓDIGO DANE DEL MUNICIPIO,MUNICIPIO,LOCALIDAD/TRONCAL,CANTIDAD,NOMBRE ZONA WIFI,ID ZONA WIFI,DIRECCION,LONGITUD ,LATITUD,FECHA DE APROBACION,ESTADO DE LA ZONA,ZONA INAGURADA;
1,ZONAS WIFI GRATIS PARA LA GENTE,ESP,6,Region Eje Cafetero - Antioquia,5,Antioquia,05002,Abejorral,N/A,1,PARQUE PRINCIPAL,500206001,CL. 50 #49-88 (PARQUE PRINCIPAL ABEJORRAL),-75.42688,5.791391,27/04/2017,OPERATIVA,SI;
2,ZONAS WIFI GRATIS PARA LA GENTE,ESP,6,Region Eje Cafetero - Antioquia,5,Antioquia,05004,Abriaquí,N/A,1,PARQUE PRINCIPAL,500406001,CALLE 11 CON LA CARRERA 10,-76.064467,6.631919,02/06/2017,OPERATIVA,SI;
3,ZONAS WIFI GRATIS PARA LA GENTE,ESP,6,Region Eje Cafetero - Antioquia,5,Antioquia,05021,Alejandría,N/A,1,PARQUE PRINCIPAL,520106001,CALLE 20 CON CARRERA 19,-75.1413,6.376899,25/05/2017,OPERATIVA,SI;
4,ZONAS WIFI GRATIS PARA LA GENTE,ESP,6,Region Eje Cafetero - Antioquia,5,Antioquia,05030,Amagá,N/A,1,PARQUE PRINCIPAL,503006001,CALLE 51 CON CARRERA 50,-75.703081,6.040611,02/06/2017,OPERATIVA,SI;
5,ZONAS WIFI GRATIS PARA LA GENTE,ESP,6,Region Eje Cafetero - Antioquia,5,Antioquia,05031,Amalfi,N/A,1,PARQUE PRINCIPAL,503106001,CALLE 20 CON CR 22,-75.075022,6.907188,24/05/2017,OPERATIVA,SI;
6,ZONAS WIFI GRATIS PARA LA GENTE,ESP,6,Region Eje Cafetero - Antioquia,5,Antioquia,05034,Andes,N/A,1,PARQUE PRINCIPAL,503406001,CLL 50 CON 51 (PARQUE PRINCIPAL),-75.87768,5.655592,04/05/2017,OPERATIVA,SI;
7,ZONAS WIFI GRATIS PARA LA GENTE,ESP,6,Region Eje Cafetero - Antioquia,5,Antioquia,05036,Angelópolis,N/A,1,PARQUE PRINCIPAL,503606001,CL. 10 (PARQUE PRINCIPAL ),-75.71028,6.111508,15/05/2017,OPERATIVA,SI;
8,ZONAS WIFI GRATIS PARA LA GENTE,ESP,6,Region Eje Cafetero - Antioquia,5,Antioquia,05038,Angostura,N/A,1,PARQUE PRINCIPAL,503806001,CL. 10 #8A (PARQUE PRINCIPAL,-75.334872,6.88574,24/05/2017,OPERATIVA,SI;
9,ZONAS WIFI GRATIS PARA LA GENTE,ESP,6,Region Eje Cafetero - Antioquia,5,Antioquia,05040,Anorí,N/A,1,PARQUE PRINCIPAL,504006001,CRA. 30 #30-58 (PARQUE PRINCIPAL,-75.145833,7.073743,24/05/2017,OPERATIVA,SI;
10,ZONAS WIFI GRATIS PARA LA GENTE,ESP,6,Region Eje Cafetero - Antioquia,5,Antioquia,05044,Anza,N/A,1,PARQUE PRINCIPAL,504406001,CALLE 10 CON CARRERA 11,-75.853725,6.303461,24/05/2017,OPERATIVA,SI;
11,ZONAS WIFI GRATIS PARA LA GENTE,ESP,3,Region Eje Cafetero - Antioquia,5,Antioquia,05045,Apartadó,N/A,1,SECTOR CIUDADELA EDUCATIVA,504506001,CALLE 98 CON CARRERA 97,-76.629858,7.881105,25/05/2017,OPERATIVA,SI;
12,ZONAS WIFI GRATIS PARA LA GENTE,ESP,6,Region Eje Cafetero - Antioquia,5,Antioquia,05051,Arboletes,N/A,1,PARQUE PRINCIPAL,505106001,CALLE 31 CON CR 31,-76.42725,8.85295,02/06/2017,OPERATIVA,SI;
13,ZONAS WIFI GRATIS PARA LA GENTE,ESP,6,Region Eje Cafetero - Antioquia,5,Antioquia,05055,Argelia,N/A,1,PARQUE PRINCIPAL,505506001,CL. 7 #3-2 (PARQUE PRINCIPAL ARGELIA),-75.14283,5.731127,15/05/2017,OPERATIVA,SI;
14,ZONAS WIFI GRATIS PARA LA GENTE,ESP,6,Region Eje Cafetero - Antioquia,5,Antioquia,05059,Armenia,N/A,1,PARQUE PRINCIPAL,505906001,CL. 10 #9-2 (PARQUE PRINCIPAL ARMENIA),-75.787702,6.156422,24/05/2017,OPERATIVA,SI;
15,ZONAS WIFI GRATIS PARA LA GENTE,ESP,5,Region Eje Cafetero - Antioquia,5,Antioquia,05079,Barbosa,N/A,1,PARQUE PRINCIPAL,507906001,CL. 13 #14 (PARQUE PRINCIPAL BARBOSA),-75.331791,6.437055,04/05/2017,OPERATIVA,SI;
16,ZONAS WIFI GRATIS PARA LA GENTE,ESP,1,Region Eje Cafetero - Antioquia,5,Antioquia,05088,Bello,N/A,1,PARQUE SANTANDER CARRERA 50 NO 51 - 00,508801000,PARQUE SANTANDER CARRERA 50 NO 51 - 00,-75.56025,6.339083,19/12/2016,OPERATIVA,SI;
17,ZONAS WIFI GRATIS PARA LA GENTE,ESP,1,Region Eje Cafetero - Antioquia,5,Antioquia,05088,Bello,N/A,1,PARQUE LA CHIQUINQUIRA,508806001,AVENIDA 43 CON DIAGONAL 61,-75.549902,6.342916,09/05/2017,OPERATIVA,SI;
18,ZONAS WIFI GRATIS PARA LA GENTE,ESP,1,Region Eje Cafetero - Antioquia,5,Antioquia,05088,Bello,N/A,1,BARRIO PARIS,508806002,CALLE 20F CON CARRERA 78A,-75.582261,6.31323,18/04/2017,OPERATIVA,SI;
19,ZONAS WIFI GRATIS PARA LA GENTE,ESP,1,Region Eje Cafetero - Antioquia,5,Antioquia,05088,Bello,N/A,1,PLATEA MARCO FIDEL SUAREZ,508806003,CARRERA 52 CON LA CALLE 53,-75.559652,6.336483,18/04/2017,OPERATIVA,SI;
20,ZONAS WIFI GRATIS PARA LA GENTE,ESP,1,Region Eje Cafetero - Antioquia,5,Antioquia,05088,Bello,N/A,1,PARQUE LA MADRE,508806004,CARRERA 46 CON CALLE 50,-75.555102,6.335674,18/04/2017,OPERATIVA,SI;
21,ZONAS WIFI GRATIS PARA LA GENTE,ESP,1,Region Eje Cafetero - Antioquia,5,Antioquia,05088,Bello,N/A,1,PARQUE EL CARMEN,508806005,CARRERA 62 CON LA CALLE 57A,-75.566475,6.341505,18/04/2017,OPERATIVA,SI;
22,ZONAS WIFI GRATIS PARA LA GENTE,ESP,1,Region Eje Cafetero - Antioquia,5,Antioquia,05088,Bello,N/A,1,BARRIO FONTIDUEÑO,508806006,DIAGONAL 44 CON AV 33,-75.53844,6.33288,18/04/2017,OPERATIVA,SI;
23,ZONAS WIFI GRATIS PARA LA GENTE,ESP,1,Region Eje Cafetero - Antioquia,5,Antioquia,05088,Bello,N/A,1,PARQUE EL MIRADOR,508806007,CRA. 49A #67-1,-75.558661,6.347294,18/04/2017,OPERATIVA,SI;
24,ZONAS WIFI GRATIS PARA LA GENTE,ESP,1,Region Eje Cafetero - Antioquia,5,Antioquia,05088,Bello,N/A,1,BARRIO LA GABRIELA,508806008,CALLE 31 CON CARRERA 43B,-75.551423,6.319415,18/04/2017,OPERATIVA,SI;
25,ZONAS WIFI GRATIS PARA LA GENTE,ESP,1,Region Eje Cafetero - Antioquia,5,Antioquia,05088,Bello,N/A,1,PARQUE GRAN AVENIDA,508806009,CARRERA 57 CON CALLE 33,-75.56226,6.320573,18/04/2017,OPERATIVA,SI;
26,ZONAS WIFI GRATIS PARA LA GENTE,ESP,1,Region Eje Cafetero - Antioquia,5,Antioquia,05088,Bello,N/A,1,PUERTA DEL NORTE NIQUIA,508806010,DIAGONAL 55 CON LA AVENIDA 35,-75.54418,6.339885,18/04/2017,OPERATIVA,SI;
27,ZONAS WIFI GRATIS PARA LA GENTE,ESP,1,Region Eje Cafetero - Antioquia,5,Antioquia,05088,Bello,N/A,1,UNICAF,508806011,DIAGONAL 65 CON AV 46 (UNICAF),-75.552728,6.346283,18/04/2017,OPERATIVA,SI;
28,ZONAS WIFI GRATIS PARA LA GENTE,ESP,1,Region Eje Cafetero - Antioquia,5,Antioquia,05088,Bello,N/A,1,PARQUE GORETTI,508806012,CRA. 63B #68A (PARQ GORETTI),-75.566408,6.348661,27/04/2017,OPERATIVA,SI;
29,ZONAS WIFI GRATIS PARA LA GENTE,ESP,1,Region Eje Cafetero - Antioquia,5,Antioquia,05088,Bello,N/A,1,SANTA RITA LA ESPERANZA,508806013,CRA 40C CON CALLE 21,-75.546986,6.30823,22/05/2017,OPERATIVA,SI;
30,ZONAS WIFI GRATIS PARA LA GENTE,ESP,1,Region Eje Cafetero - Antioquia,5,Antioquia,05088,Bello,N/A,1,POLIDEPORTIVO TULIO OSPINA,508806014,AV 42 CON DG 51,-75.547252,6.334386,26/05/2017,OPERATIVA,SI;
31,ZONAS WIFI GRATIS PARA LA GENTE,ESP,6,Region Eje Cafetero - Antioquia,5,Antioquia,05086,Belmira,N/A,1,PARQUE PRINCIPAL,508606001,CRA. 21 #19-2 (PARQUE PRINCIPAL,-75.666944,6.605833,02/06/2017,OPERATIVA,SI;
32,ZONAS WIFI GRATIS PARA LA GENTE,ESP,6,Region Eje Cafetero - Antioquia,5,Antioquia,05091,Betania,N/A,1,PARQUE PRINCIPAL,509106001,CRA 6 CON CALLE 14 (PARQUE PRINCIPAL),-75.976325,5.744966,02/06/2017,OPERATIVA,SI;
33,ZONAS WIFI GRATIS PARA LA GENTE,ESP,6,Region Eje Cafetero - Antioquia,5,Antioquia,05093,Betulia,N/A,1,PARQUE PRINCIPAL,509306001,CL. 20 CON 21 (PARQUE PRINCIPAL),-75.984583,6.11338,04/05/2017,OPERATIVA,SI;
34,ZONAS WIFI GRATIS PARA LA GENTE,ESP,6,Region Eje Cafetero - Antioquia,5,Antioquia,05107,Briceño,N/A,1,PARQUE PRINCIPAL,510706001,CARRERA 7 CON CALLE 5,-75.551794,7.110513,11/05/2017,OPERATIVA,SI;
35,ZONAS WIFI GRATIS PARA LA GENTE,ESP,6,Region Eje Cafetero - Antioquia,5,Antioquia,05113,Buriticá,N/A,1,PARQUE PRINCIPAL,511306001,CALLE 8 #3-56,-75.906688,6.719813,09/05/2017,OPERATIVA,SI;
36,ZONAS WIFI GRATIS PARA LA GENTE,ESP,6,Region Eje Cafetero - Antioquia,5,Antioquia,05120,Cáceres,N/A,1,PARQUE PRINCIPAL,512006001,CARRERA 50 CON CALLE #50,-75.347805,7.582297,11/05/2017,OPERATIVA,SI;
37,ZONAS WIFI GRATIS PARA LA GENTE,ESP,6,Region Eje Cafetero - Antioquia,5,Antioquia,05125,Caicedo,N/A,1,PARQUE PRINCIPAL,512506001,CL. 6 #4-2 (PARQUE PRINCIPAL CAICEDO),-75.9825,6.405833,25/05/2017,OPERATIVA,SI;
38,ZONAS WIFI GRATIS PARA LA GENTE,ESP,4,Region Eje Cafetero - Antioquia,5,Antioquia,05129,Caldas,N/A,1,PARQUE PRINCIPAL,512906001,CRA. 50 #129 SUR (PARQUE PRINCIPAL,-75.635686,6.091847,01/05/2017,OPERATIVA,SI;
"39,ZONAS WIFI GRATIS PARA LA GENTE,ESP,4,Region Eje Cafetero - Antioquia,5,Antioquia,05129,Caldas,N/A,1,""PARQUE HABITAD DEL SUR, BARRIO MANDALAY"",512906002,CR. 50 # 142A SUR,-75.635111,6.080555,07/05/2017,OPERATIVA,SI";
40,ZONAS WIFI GRATIS PARA LA GENTE,ESP,6,Region Eje Cafetero - Antioquia,5,Antioquia,05134,Campamento,N/A,1,PARQUE PRINCIPAL,513406001,CALLE 10 CON CARRERA 10,-75.296211,6.979058,25/05/2017,OPERATIVA,SI;
41,ZONAS WIFI GRATIS PARA LA GENTE,ESP,6,Region Eje Cafetero - Antioquia,5,Antioquia,05138,Cañasgordas,N/A,1,PARQUE PRINCIPAL,513806001,CL. 33 #30-1 (PARQUE PRINCIPAL CAÑASGORDAS),-76.025225,6.749725,02/06/2017,OPERATIVA,SI;
42,ZONAS WIFI GRATIS PARA LA GENTE,ESP,6,Region Eje Cafetero - Antioquia,5,Antioquia,05142,Caracolí,N/A,1,PARQUE PRINCIPAL,514206001,CRA. 21B #21-2 (PARQUE PRINCIPAL CARACOLÍ),-74.757019,6.411119,25/05/2017,OPERATIVA,SI;
43,ZONAS WIFI GRATIS PARA LA GENTE,ESP,6,Region Eje Cafetero - Antioquia,5,Antioquia,05145,Caramanta,N/A,1,PARQUE PRINCIPAL,514506001,CARRERA 21 CON CALLE 19,-75.644555,5.548697,25/05/2017,OPERATIVA,SI;
44,ZONAS WIFI GRATIS PARA LA GENTE,ESP,6,Region Eje Cafetero - Antioquia,5,Antioquia,05147,Carepa,N/A,1,PARQUE PRINCIPAL,514706001,CARRERA 73 ENTRE CALLES 80 Y 76A,-76.655725,7.755781,02/06/2017,OPERATIVA,SI;
45,ZONAS WIFI GRATIS PARA LA GENTE,ESP,6,Region Eje Cafetero - Antioquia,5,Antioquia,05150,Carolina,N/A,1,PARQUE PRINCIPAL,515006001,CRA. 49 CON CALLE 49 (PARQUE PRINCIPAL),-75.281247,6.723491,24/05/2017,OPERATIVA,SI;
46,ZONAS WIFI GRATIS PARA LA GENTE,ESP,5,Region Eje Cafetero - Antioquia,5,Antioquia,05154,Caucasia,N/A,1,PARQUE PRINCIPAL,515406001,PARQUE PRINCIPAL CAUCASIA,-75.1983,7.98776,24/05/2017,OPERATIVA,SI;
47,ZONAS WIFI GRATIS PARA LA GENTE,ESP,6,Region Eje Cafetero - Antioquia,5,Antioquia,05172,Chigorodó,N/A,1,PARQUE PRINCIPAL,517206001,CL. 101 #105-18 (PARQUE CHIGORODÓ),-76.685239,7.67233,25/05/2017,OPERATIVA,SI;
48,ZONAS WIFI GRATIS PARA LA GENTE,ESP,6,Region Eje Cafetero - Antioquia,5,Antioquia,05190,Cisneros,N/A,1,PARQUE PRINCIPAL,519006001,CL 19#20,-75.08863,6.538383,24/05/2017,OPERATIVA,SI;
49,ZONAS WIFI GRATIS PARA LA GENTE,ESP,6,Region Eje Cafetero - Antioquia,5,Antioquia,05101,Ciudad Bolívar,N/A,1,PARQUE PRINCIPAL,510106001,CLL 49 (PARQUE PRINCIPAL),-76.020686,5.849989,17/05/2017,OPERATIVA,SI;
50,ZONAS WIFI GRATIS PARA LA GENTE,ESP,6,Region Eje Cafetero - Antioquia,5,Antioquia,05197,Cocorná,N/A,1,PARQUE PRINCIPAL,519706001,CARRERA 20 CON CALLE #20,-75.185288,6.057521,02/06/2017,OPERATIVA,SI;
51,ZONAS WIFI GRATIS PARA LA GENTE,ESP,6,Region Eje Cafetero - Antioquia,5,Antioquia,05206,Concepción,N/A,1,PARQUE PRINCIPAL,520606001,CL. 20 #20-2 (PARQUE PRINCIPAL,-75.259344,6.395222,24/05/2017,OPERATIVA,SI;
52,ZONAS WIFI GRATIS PARA LA GENTE,ESP,6,Region Eje Cafetero - Antioquia,5,Antioquia,05209,Concordia,N/A,1,PARQUE PRINCIPAL,520906001,CLL 19 CON 19 (PARQUE PRINCIPAL),-75.90719,6.046208,25/05/2017,OPERATIVA,SI;
53,ZONAS WIFI GRATIS PARA LA GENTE,ESP,2,Region Eje Cafetero - Antioquia,5,Antioquia,05212,Copacabana,N/A,1,PARQUE PRINCIPAL,521206001,CALLE 49 CON CARRERA 50,-75.508107,6.346221,04/05/2017,OPERATIVA,SI;
54,ZONAS WIFI GRATIS PARA LA GENTE,ESP,6,Region Eje Cafetero - Antioquia,5,Antioquia,05234,Dabeiba,N/A,1,PARQUE PRINCIPAL,523406001,CALLE 12 CON LA CRA 12,-76.266688,7.00138,24/05/2017,OPERATIVA,SI;
55,ZONAS WIFI GRATIS PARA LA GENTE,ESP,6,Region Eje Cafetero - Antioquia,5,Antioquia,05237,Don Matías,N/A,1,PARQUE PRINCIPAL,523706001,CARRERA 29 CON CALLE 29,-75.394771,6.486111,24/05/2017,OPERATIVA,SI;
"56,ZONAS WIFI GRATIS PARA LA GENTE,ESP,6,Region Eje Cafetero - Antioquia,5,Antioquia,05240,Ebéjico,N/A,1,BARRIO EL CARMELO (PARTE ALTA),524006001,""SEC CARRERA 10 (SECTOR LA VIRGEN, BARRIO EL CARMELO)"",-75.763083,6.327119,26/05/2017,OPERATIVA,SI";
57,ZONAS WIFI GRATIS PARA LA GENTE,ESP,6,Region Eje Cafetero - Antioquia,5,Antioquia,05240,Ebéjico,N/A,1,PARQUE PRINCIPAL,524006002,CALLE 20 CON CARRERA 20 (PARQUE,-75.768055,6.326666,02/06/2017,OPERATIVA,SI;
58,ZONAS WIFI GRATIS PARA LA GENTE,ESP,5,Region Eje Cafetero - Antioquia,5,Antioquia,05250,El Bagre,N/A,1,PARQUE PRINCIPAL,525006001,CLL 50 (PARQUE PRINCIPAL),-74.812921,7.600009,25/05/2017,OPERATIVA,SI;
59,ZONAS WIFI GRATIS PARA LA GENTE,ESP,5,Region Eje Cafetero - Antioquia,5,Antioquia,05148,El Carmen de Viboral,N/A,1,PARQUE PRINCIPAL,514806001,PARQUE PRINCIPAL CARMEN DE VIBORAL,-75.335334,6.08293,01/06/2017,OPERATIVA,SI;
60,ZONAS WIFI GRATIS PARA LA GENTE,ESP,6,Region Eje Cafetero - Antioquia,5,Antioquia,05697,El Santuario,N/A,1,PARQUE PRINCIPAL,569706001,CARRERA 50 CON CALLE 50,-75.265669,6.139488,24/05/2017,OPERATIVA,SI;
61,ZONAS WIFI GRATIS PARA LA GENTE,ESP,6,Region Eje Cafetero - Antioquia,5,Antioquia,05264,Entrerrios,N/A,1,PARQUE PRINCIPAL,526406001,CL. 10 #11-42,-75.517185,6.567571,15/05/2017,OPERATIVA,SI;
62,ZONAS WIFI GRATIS PARA LA GENTE,ESP,1,Region Eje Cafetero - Antioquia,5,Antioquia,05266,Envigado,N/A,1,POLIDEPORTIVO SUR DE ENVIGADO,526606001,CARRERA 48 - 46 SUR 150,-75.600363,6.164541,24/05/2017,OPERATIVA,SI;
63,ZONAS WIFI GRATIS PARA LA GENTE,ESP,1,Region Eje Cafetero - Antioquia,5,Antioquia,05266,Envigado,N/A,1,VIGA SKATE-PARK,526606002,CARRERA 43 # 33 S - 10,-75.595908,6.169025,26/05/2017,OPERATIVA,SI;
64,ZONAS WIFI GRATIS PARA LA GENTE,ESP,6,Region Eje Cafetero - Antioquia,5,Antioquia,05282,Fredonia,N/A,1,PARQUE PRINCIPAL,528206001,CRA. 51 #49-2 (PARQUE PRINCIPAL FREDONIA),-75.671766,5.926938,11/05/2017,OPERATIVA,SI;
65,ZONAS WIFI GRATIS PARA LA GENTE,ESP,6,Region Eje Cafetero - Antioquia,5,Antioquia,05284,Frontino,N/A,1,PARQUE PRINCIPAL,528406001,CALLE 30 # 30-02,-76.128512,6.780001,25/05/2017,OPERATIVA,SI;
66,ZONAS WIFI GRATIS PARA LA GENTE,ESP,6,Region Eje Cafetero - Antioquia,5,Antioquia,05306,Giraldo,N/A,1,PARQUE PRINCIPAL,530606001,CALLE 10 CR 11,-75.953111,6.680533,24/05/2017,OPERATIVA,SI;
67,ZONAS WIFI GRATIS PARA LA GENTE,ESP,3,Region Eje Cafetero - Antioquia,5,Antioquia,05308,Girardota,N/A,1,PARQUE PRINCIPAL,530806001,CARRERA 16 CON CALLE 7,-75.446044,6.377425,09/05/2017,OPERATIVA,SI;
68,ZONAS WIFI GRATIS PARA LA GENTE,ESP,6,Region Eje Cafetero - Antioquia,5,Antioquia,05310,Gómez Plata,N/A,1,PARQUE PRINCIPAL,531006001,CARRERA 51 CON CALLE 50,-75.21933,6.681555,24/05/2017,OPERATIVA,SI;
69,ZONAS WIFI GRATIS PARA LA GENTE,ESP,6,Region Eje Cafetero - Antioquia,5,Antioquia,05313,Granada,N/A,1,PARQUE PRINCIPAL,531306001,CRA. 20 #24-97,-75.184386,6.144263,25/05/2017,OPERATIVA,SI;
70,ZONAS WIFI GRATIS PARA LA GENTE,ESP,6,Region Eje Cafetero - Antioquia,5,Antioquia,05315,Guadalupe,N/A,1,PARQUE PRINCIPAL,531506001,CRA. 49 #50 (PARQUE PRINCIPAL GUADALUPE),-75.240312,6.815089,25/05/2017,OPERATIVA,SI;
71,ZONAS WIFI GRATIS PARA LA GENTE,ESP,4,Region Eje Cafetero - Antioquia,5,Antioquia,05318,Guarne,N/A,1,PARQUE PRINCIPAL,531806001,CARRERA 50 CON CALLE 50,-75.442731,6.279926,14/07/2017,OPERATIVA,SI;
72,ZONAS WIFI GRATIS PARA LA GENTE,ESP,6,Region Eje Cafetero - Antioquia,5,Antioquia,05321,Guatapé,N/A,1,PARQUE PRINCIPAL,532106001,CRA. 30 #30-25,-75.16151,6.234172,11/05/2017,OPERATIVA,SI;
73,ZONAS WIFI GRATIS PARA LA GENTE,ESP,6,Region Eje Cafetero - Antioquia,5,Antioquia,05347,Heliconia,N/A,1,PARQUE PRINCIPAL,534706001,PARQUE PRINCIPAL HELICONIA,-75.733275,6.207001,01/05/2017,OPERATIVA,SI;
74,ZONAS WIFI GRATIS PARA LA GENTE,ESP,6,Region Eje Cafetero - Antioquia,5,Antioquia,05353,Hispania,N/A,1,PARQUE PRINCIPAL,535306001,CALLE 48 CON CARRERA 50,-75.907434,5.799584,04/05/2017,OPERATIVA,SI;
75,ZONAS WIFI GRATIS PARA LA GENTE,ESP,1,Region Eje Cafetero - Antioquia,5,Antioquia,05360,Itagui,N/A,1,PARQUE OBRERO - BRAZIL,536006001,CALLE 48 CON CARRERA 50,-75.611552,6.171477,02/06/2017,OPERATIVA,SI;
76,ZONAS WIFI GRATIS PARA LA GENTE,ESP,6,Region Eje Cafetero - Antioquia,5,Antioquia,05361,Ituango,N/A,1,PARQUE PRINCIPAL,536106001,CRA. 20 #20-32 (PARQUE PRINCIPAL),-75.763711,7.172222,25/05/2017,OPERATIVA,SI;
77,ZONAS WIFI GRATIS PARA LA GENTE,ESP,6,Region Eje Cafetero - Antioquia,5,Antioquia,05364,Jardín,N/A,1,PARQUE PRINCIPAL,536406001,CL. 9 CR 5,-75.819275,5.598808,24/05/2017,OPERATIVA,SI;
78,ZONAS WIFI GRATIS PARA LA GENTE,ESP,6,Region Eje Cafetero - Antioquia,5,Antioquia,05368,Jericó,N/A,1,PARQUE PRINCIPAL,536806001,CALLE 6 #4-2 (PARQUE PRINCIPAL JERICÓ),-75.78605,5.791505,24/05/2017,OPERATIVA,SI;
79,ZONAS WIFI GRATIS PARA LA GENTE,ESP,5,Region Eje Cafetero - Antioquia,5,Antioquia,05376,La Ceja,N/A,1,PARQUE PRINCIPAL,537606001,CRA. 20#19-31 (PARQUE PRINCIPAL),-75.431625,6.03071,24/05/2017,OPERATIVA,SI;
80,ZONAS WIFI GRATIS PARA LA GENTE,ESP,3,Region Eje Cafetero - Antioquia,5,Antioquia,05380,La Estrella,N/A,1,PARQUE PRINCIPAL,538006001,CRA. 60 #80 SUR-1 (PARQUE PRINCIPAL),-75.643419,6.15765,04/05/2017,OPERATIVA,SI;
81,ZONAS WIFI GRATIS PARA LA GENTE,ESP,6,Region Eje Cafetero - Antioquia,5,Antioquia,05390,La Pintada,N/A,1,PARQUE PRINCIPAL,539006001,CALLE 35 CON CARRERA 32,-75.605902,5.747275,04/05/2017,OPERATIVA,SI;
82,ZONAS WIFI GRATIS PARA LA GENTE,ESP,6,Region Eje Cafetero - Antioquia,5,Antioquia,05400,La Unión,N/A,1,PARQUE PRINCIPAL,540006001,CL. 11 #9-11 (PARQUE PRINCIPAL),-75.361544,5.973277,02/05/2017,OPERATIVA,SI;
83,ZONAS WIFI GRATIS PARA LA GENTE,ESP,6,Region Eje Cafetero - Antioquia,5,Antioquia,05411,Liborina,N/A,1,PARQUE PRINCIPAL,541106001,PARQUE PRINCIPAL LIBORINA,-75.811238,6.678172,26/04/2017,OPERATIVA,SI;
84,ZONAS WIFI GRATIS PARA LA GENTE,ESP,6,Region Eje Cafetero - Antioquia,5,Antioquia,05425,Maceo,N/A,1,PARQUE PRINCIPAL,542506001,PARQUE PRINCIPAL MACEO,-74.787753,6.553524,25/05/2017,OPERATIVA,SI;
85,ZONAS WIFI GRATIS PARA LA GENTE,ESP,5,Region Eje Cafetero - Antioquia,5,Antioquia,05440,Marinilla,N/A,1,PARQUE PRINCIPAL,544006001,CALLE 31 CON CARRERA 30 (PARQUE PRINCIPAL),-75.334697,6.173663,01/06/2017,OPERATIVA,SI;
86,ZONAS WIFI GRATIS PARA LA GENTE,ESP,ESP,Region Eje Cafetero - Antioquia,5,Antioquia,05001,Medellín,N/A,1,UNIDAD DEPORTIVA LA FLORESTA CALLE 47 N° 87B - 80,500101000,UNIDAD DEPORTIVA LA FLORESTA CALLE 47 N° 87B - 80,-75.604944,6.256,19/12/2016,OPERATIVA,SI;
87,ZONAS WIFI GRATIS PARA LA GENTE,ESP,ESP,Region Eje Cafetero - Antioquia,5,Antioquia,05001,Medellín,N/A,1,PARQUE LINEAL LA PRESIDENTA (SECTOR POBLADO),500106001,CR. 43A CON CLL 7D (PARQUE LA PRESIDENTA),-75.570033,6.207797,11/08/2017,OPERATIVA,SI;
88,ZONAS WIFI GRATIS PARA LA GENTE,ESP,ESP,Region Eje Cafetero - Antioquia,5,Antioquia,05001,Medellín,N/A,1,PARQUE OBRERO (BARRIO BOSTON),500106002,CALLE 59A # 39-1 (PARQUE OBRERO),-75.55638,6.251363,11/08/2017,OPERATIVA,SI;
89,ZONAS WIFI GRATIS PARA LA GENTE,ESP,ESP,Region Eje Cafetero - Antioquia,5,Antioquia,05001,Medellín,N/A,1,CIUDAD DEL RIO (BARRIO EL POBLADO),500106003,CALLE 19 # 43G - 155 (PARQUE CIUDAD DEL RIO),-75.5731,6.22222,11/08/2017,OPERATIVA,SI;
90,ZONAS WIFI GRATIS PARA LA GENTE,ESP,ESP,Region Eje Cafetero - Antioquia,5,Antioquia,05001,Medellín,N/A,1,PARQUE DE RUEDA 4SUR,500106004,PARQUE DE RUEDA 4SUR,-75.580277,6.203708,11/08/2017,OPERATIVA,SI;
91,ZONAS WIFI GRATIS PARA LA GENTE,ESP,6,Region Eje Cafetero - Antioquia,5,Antioquia,05467,Montebello,N/A,1,PARQUE PRINCIPAL,546706001,CALLE 20 CON CARRERA 20,-75.524455,5.945891,02/06/2017,OPERATIVA,SI;
92,ZONAS WIFI GRATIS PARA LA GENTE,ESP,6,Region Eje Cafetero - Antioquia,5,Antioquia,05475,Murindó,N/A,1,PARQUE PRINCIPAL,547506001,CALLE 47 CON 44,-76.81882,6.977655,25/05/2017,OPERATIVA,SI;
93,ZONAS WIFI GRATIS PARA LA GENTE,ESP,6,Region Eje Cafetero - Antioquia,5,Antioquia,05480,Mutatá,N/A,1,PARQUE PRINCIPAL,548006001,CL. 9 #4-1 (PARQUE PRINCIPAL MUTATÁ),-76.437072,7.245304,24/05/2017,OPERATIVA,SI;
94,ZONAS WIFI GRATIS PARA LA GENTE,ESP,6,Region Eje Cafetero - Antioquia,5,Antioquia,05483,Nariño,N/A,1,PARQUE PRINCIPAL,548306001,PARQUE MUNICIPIO DE NARIÑO,-75.177744,5.608467,17/05/2017,OPERATIVA,SI;
95,ZONAS WIFI GRATIS PARA LA GENTE,ESP,6,Region Eje Cafetero - Antioquia,5,Antioquia,05495,Nechí,N/A,1,PARQUE PRINCIPAL,549506001,CARRERA 30 CON CALLE 30,-74.774075,8.094941,25/05/2017,OPERATIVA,SI;
96,ZONAS WIFI GRATIS PARA LA GENTE,ESP,6,Region Eje Cafetero - Antioquia,5,Antioquia,05490,Necoclí,N/A,1,PARQUE PRINCIPAL,549006001,CARRERA 50 CON CALLE 50,-76.786802,8.424222,24/05/2017,OPERATIVA,SI;
97,ZONAS WIFI GRATIS PARA LA GENTE,ESP,6,Region Eje Cafetero - Antioquia,5,Antioquia,05501,Olaya,N/A,1,PARQUE PRINCIPAL,550106001,PARQUE PRINCIPAL OLAYA,-75.812352,6.628147,02/05/2017,OPERATIVA,SI;
98,ZONAS WIFI GRATIS PARA LA GENTE,ESP,6,Region Eje Cafetero - Antioquia,5,Antioquia,05541,Peñol,N/A,1,PARQUE PRINCIPAL,554106001,TRANSVERSAL 4 CRA 17,-75.24332,6.21679,04/05/2017,OPERATIVA,SI;
99,ZONAS WIFI GRATIS PARA LA GENTE,ESP,6,Region Eje Cafetero - Antioquia,5,Antioquia,05543,Peque,N/A,1,PARQUE PRINCIPAL,554306001,CALLE 10 CON CARRERA 10,-75.90897,7.021845,02/06/2017,OPERATIVA,SI;
100,ZONAS WIFI GRATIS PARA LA GENTE,ESP,6,Region Eje Cafetero - Antioquia,5,Antioquia,05543,Peque,N/A,1,PARQUE BARRIO LA MIRANDA,554306002,CALLE 9 NO. 13-23,-75.913174,7.021849,02/08/2017,OPERATIVA,SI;
101,ZONAS WIFI GRATIS PARA LA GENTE,ESP,6,Region Eje Cafetero - Antioquia,5,Antioquia,05576,Pueblorrico,N/A,1,PARQUE PRINCIPAL,557606001,CRA. 30 #30-1 (PARQUE PRINCIPAL),-75.841708,5.790991,09/05/2017,OPERATIVA,SI;
"102,ZONAS WIFI GRATIS PARA LA GENTE,ESP,6,Region Eje Cafetero - Antioquia,5,Antioquia,05579,Puerto Berrío,N/A,1,PARQUE PRINCIPAL,557906001,""CRA. 5, (PARQUE PRINCIPAL PUERTO BERRIO)"",-74.401864,6.489555,25/05/2017,OPERATIVA,SI";
103,ZONAS WIFI GRATIS PARA LA GENTE,ESP,6,Region Eje Cafetero - Antioquia,5,Antioquia,05585,Puerto Nare,N/A,1,PARQUE PRINCIPAL,558506001,PARQUE PRINCIPAL DE PUERTO NARE,-74.581652,6.187869,25/05/2017,OPERATIVA,SI;
104,ZONAS WIFI GRATIS PARA LA GENTE,ESP,6,Region Eje Cafetero - Antioquia,5,Antioquia,05591,Puerto Triunfo,N/A,1,PARQUE PRINCIPAL,559106001,CLL 11 CON CARRERA 10 (PARQUE PRINCIPAL),-74.640555,5.868611,25/05/2017,OPERATIVA,SI;
105,ZONAS WIFI GRATIS PARA LA GENTE,ESP,6,Region Eje Cafetero - Antioquia,5,Antioquia,05604,Remedios,N/A,1,PARQUE PRINCIPAL,560406001,PARQUE PRINCIPAL REMEDIOS,-74.693658,7.028019,25/05/2017,OPERATIVA,SI;
106,ZONAS WIFI GRATIS PARA LA GENTE,ESP,4,Region Eje Cafetero - Antioquia,5,Antioquia,05607,Retiro,N/A,1,PARQUE PRINCIPAL,560706001,CL. 20 #20-11 (PARQUE PRINCIPAL),-75.502667,6.057397,02/06/2017,OPERATIVA,SI;
107,ZONAS WIFI GRATIS PARA LA GENTE,ESP,1,Region Eje Cafetero - Antioquia,5,Antioquia,05615,Rionegro,N/A,1,PARQUE SAN FRANCISCO - PLAZOLETA DE LOS MÁRTIRES,561506001,CALLE 51 CON CR 48,-75.372222,6.154433,04/05/2017,OPERATIVA,SI;
108,ZONAS WIFI GRATIS PARA LA GENTE,ESP,6,Region Eje Cafetero - Antioquia,5,Antioquia,05628,Sabanalarga,N/A,1,PARQUE PRINCIPAL,562806001,CARRERA 20 CON CALLE 20,-75.818211,6.850431,24/05/2017,OPERATIVA,SI;
109,ZONAS WIFI GRATIS PARA LA GENTE,ESP,1,Region Eje Cafetero - Antioquia,5,Antioquia,05631,Sabaneta,N/A,1,PARQUE 77 SUR (SECTOR ESTACIÓN METRO LA ESTRELLA),563106001,CLL 77 SUR # 46D,-75.622555,6.149666,02/06/2017,OPERATIVA,SI;
110,ZONAS WIFI GRATIS PARA LA GENTE,ESP,6,Region Eje Cafetero - Antioquia,5,Antioquia,05642,Salgar,N/A,1,PARQUE PRINCIPAL,564206001,CARRERA 30 CON CALLE 30,-75.978975,5.963305,04/05/2017,OPERATIVA,SI;
111,ZONAS WIFI GRATIS PARA LA GENTE,ESP,6,Region Eje Cafetero - Antioquia,5,Antioquia,05647,San Andrés de Cuerquía,N/A,1,PARQUE PRINCIPAL,564706001,CALLE 30 #30 (PARQUE PRINCIPAL SAN ANDRES DE CUERQUIA),-75.676188,6.914969,25/05/2017,OPERATIVA,SI;
112,ZONAS WIFI GRATIS PARA LA GENTE,ESP,6,Region Eje Cafetero - Antioquia,5,Antioquia,05649,San Carlos,N/A,1,PARQUE PRINCIPAL,564906001,CL. 20 #19-40,-74.992158,6.188733,24/05/2017,OPERATIVA,SI;
113,ZONAS WIFI GRATIS PARA LA GENTE,ESP,6,Region Eje Cafetero - Antioquia,5,Antioquia,05652,San Francisco,N/A,1,PARQUE PRINCIPAL,565206001,CALLE 11 CON CARRERA 11,-75.102144,5.965124,15/05/2017,OPERATIVA,SI;
"114,ZONAS WIFI GRATIS PARA LA GENTE,ESP,6,Region Eje Cafetero - Antioquia,5,Antioquia,05656,San Jerónimo,N/A,1,PLACA POLIDEPORTIVA SECTOR LLANO DE AGUIRRE,565606001,""VIA VIEJA A SANTA FE, DESPUES DE PARCELACION EL HATO"",-75.739722,6.459444,26/05/2017,OPERATIVA,SI";
115,ZONAS WIFI GRATIS PARA LA GENTE,ESP,6,Region Eje Cafetero - Antioquia,5,Antioquia,05656,San Jerónimo,N/A,1,PARQUE PRINCIPAL,565606002,CARRERA 10 CON CALLE 10,-75.727969,6.442666,02/06/2017,OPERATIVA,SI;
116,ZONAS WIFI GRATIS PARA LA GENTE,ESP,6,Region Eje Cafetero - Antioquia,5,Antioquia,05658,San José de La Montaña,N/A,1,PARQUE PRINCIPAL,565806001,CALLE 20A (PARQUE PRINCIPAL),-75.682555,6.851111,24/05/2017,OPERATIVA,SI;
117,ZONAS WIFI GRATIS PARA LA GENTE,ESP,6,Region Eje Cafetero - Antioquia,5,Antioquia,05659,San Juan de Urabá,N/A,1,PARQUE PRINCIPAL,565906001,CARRERA 21 CON CALLE #21,-76.528325,8.760913,25/05/2017,OPERATIVA,SI;
118,ZONAS WIFI GRATIS PARA LA GENTE,ESP,6,Region Eje Cafetero - Antioquia,5,Antioquia,05660,San Luis,N/A,1,PARQUE PRINCIPAL,566006001,CRA. 20 #20-2 (PARQUE PRINCIPAL,-74.994555,6.042699,25/05/2017,OPERATIVA,SI;
119,ZONAS WIFI GRATIS PARA LA GENTE,ESP,6,Region Eje Cafetero - Antioquia,5,Antioquia,05664,San Pedro,N/A,1,PARQUE PRINCIPAL,566406001,CL. 49 #49-115,-75.555897,6.461702,24/05/2017,OPERATIVA,SI;
120,ZONAS WIFI GRATIS PARA LA GENTE,ESP,6,Region Eje Cafetero - Antioquia,5,Antioquia,05665,San Pedro de Uraba,N/A,1,PARQUE PRINCIPAL,566506001,PARQUE DE SAN PEDRO DE URABA,-76.382853,8.278083,24/05/2017,OPERATIVA,SI;
121,ZONAS WIFI GRATIS PARA LA GENTE,ESP,6,Region Eje Cafetero - Antioquia,5,Antioquia,05667,San Rafael,N/A,1,PARQUE PRINCIPAL,566706001,CL 30 #30-2,-75.028194,6.295388,25/05/2017,OPERATIVA,SI;
122,ZONAS WIFI GRATIS PARA LA GENTE,ESP,6,Region Eje Cafetero - Antioquia,5,Antioquia,05670,San Roque,N/A,1,PARQUE PRINCIPAL,567006001,CARRERA 20 CON CALLE 19,-75.019458,6.485022,24/05/2017,OPERATIVA,SI;
123,ZONAS WIFI GRATIS PARA LA GENTE,ESP,6,Region Eje Cafetero - Antioquia,5,Antioquia,05674,San Vicente,N/A,1,PARQUE PRINCIPAL,567406001,PARQUE PRINCIPAL SAN VICENTE,-75.33177,6.282657,04/05/2017,OPERATIVA,SI;
124,ZONAS WIFI GRATIS PARA LA GENTE,ESP,6,Region Eje Cafetero - Antioquia,5,Antioquia,05679,Santa Bárbara,N/A,1,PARQUE PRINCIPAL,567906001,CALLE 50 CON CARRERA 50,-75.567775,5.874055,25/05/2017,OPERATIVA,SI;
125,ZONAS WIFI GRATIS PARA LA GENTE,ESP,5,Region Eje Cafetero - Antioquia,5,Antioquia,05686,Santa Rosa de Osos,N/A,1,PARQUE PRINCIPAL,568606001,CL. 30A #29-50,-75.460983,6.648783,24/05/2017,OPERATIVA,SI;
126,ZONAS WIFI GRATIS PARA LA GENTE,ESP,5,Region Eje Cafetero - Antioquia,5,Antioquia,05042,Santafé de Antioquia,N/A,1,PARQUE PRINCIPAL,504206001,CALLE 9 CON CARRERA 9,-75.8275,6.555833,15/08/2017,OPERATIVA,SI;
127,ZONAS WIFI GRATIS PARA LA GENTE,ESP,6,Region Eje Cafetero - Antioquia,5,Antioquia,05690,Santo Domingo,N/A,1,PARQUE PRINCIPAL,569006001,CRA 16 CON CALLE 12 (PARQUE PRINCIPAL SANTO DOMINGO),-75.16448,6.471308,02/06/2017,OPERATIVA,SI;
128,ZONAS WIFI GRATIS PARA LA GENTE,ESP,6,Region Eje Cafetero - Antioquia,5,Antioquia,05736,Segovia,N/A,1,PARQUE PRINCIPAL,573606001,CRA. 51 #50 (PARQUE PRINCIPAL SEGOVIA),-74.701627,7.081592,24/05/2017,OPERATIVA,SI;
129,ZONAS WIFI GRATIS PARA LA GENTE,ESP,5,Region Eje Cafetero - Antioquia,5,Antioquia,05756,Sonson,N/A,1,PARQUE PRINCIPAL,575606001,CARRERA 8 CON CALLE 7,-75.310244,5.709044,24/05/2017,OPERATIVA,SI;
130,ZONAS WIFI GRATIS PARA LA GENTE,ESP,6,Region Eje Cafetero - Antioquia,5,Antioquia,05761,Sopetrán,N/A,1,PARQUE PRINCIPAL,576106001,CALLE 10 CON CARRERA #9,-75.742319,6.500951,04/05/2017,OPERATIVA,SI;
131,ZONAS WIFI GRATIS PARA LA GENTE,ESP,6,Region Eje Cafetero - Antioquia,5,Antioquia,05789,Támesis,N/A,1,PARQUE PRINCIPAL,578906001,CARRERA 10 # 10 (PARQUE PRINCIPAL,-75.712616,5.662761,02/06/2017,OPERATIVA,SI;
132,ZONAS WIFI GRATIS PARA LA GENTE,ESP,6,Region Eje Cafetero - Antioquia,5,Antioquia,05790,Tarazá,N/A,1,PARQUE PRINCIPAL,579006001,CRA. 34 #43-1,-75.400046,7.586318,09/05/2017,OPERATIVA,SI;
133,ZONAS WIFI GRATIS PARA LA GENTE,ESP,6,Region Eje Cafetero - Antioquia,5,Antioquia,05792,Tarso,N/A,1,PARQUE PRINCIPAL,579206001,CRA 20 CON CALLE 20 (PARQUE PRINCIPAL),-75.822083,5.865377,09/05/2017,OPERATIVA,SI;
134,ZONAS WIFI GRATIS PARA LA GENTE,ESP,6,Region Eje Cafetero - Antioquia,5,Antioquia,05809,Titiribí,N/A,1,PARQUE PRINCIPAL,580906001,CRA. 20 #21-1,-75.793677,6.06343,24/05/2017,OPERATIVA,SI;
135,ZONAS WIFI GRATIS PARA LA GENTE,ESP,6,Region Eje Cafetero - Antioquia,5,Antioquia,05819,Toledo,N/A,1,PARQUE PRINCIPAL,581906001,CALLE 11 CON CARRERA 10,-75.691667,7.010966,24/05/2017,OPERATIVA,SI;
136,ZONAS WIFI GRATIS PARA LA GENTE,ESP,5,Region Eje Cafetero - Antioquia,5,Antioquia,05837,Turbo,N/A,1,PARQUE PRINCIPAL,583706001,CR 16 CON CALLE 102,-76.725282,8.093781,24/05/2017,OPERATIVA,SI;
137,ZONAS WIFI GRATIS PARA LA GENTE,ESP,6,Region Eje Cafetero - Antioquia,5,Antioquia,05842,Uramita,N/A,1,PARQUE PRINCIPAL,584206001,VÍA PRINCIPAL PEQUE-URAMITA,-76.174581,6.899781,05/05/2017,OPERATIVA,SI;
138,ZONAS WIFI GRATIS PARA LA GENTE,ESP,6,Region Eje Cafetero - Antioquia,5,Antioquia,05847,Urrao,N/A,1,PARQUE PRINCIPAL,584706001,CLL 31 CON 30,-76.134224,6.316984,25/05/2017,OPERATIVA,SI;
139,ZONAS WIFI GRATIS PARA LA GENTE,ESP,6,Region Eje Cafetero - Antioquia,5,Antioquia,05854,Valdivia,N/A,1,PARQUE PRINCIPAL,585406001,PARQUE PRINCIPAL VALDIVIA,-75.438686,7.165039,06/05/2017,OPERATIVA,SI;
140,ZONAS WIFI GRATIS PARA LA GENTE,ESP,6,Region Eje Cafetero - Antioquia,5,Antioquia,05856,Valparaíso,N/A,1,PARQUE PRINCIPAL,585606001,CARRERA 10 CON CALLE 11,-75.624516,5.616144,24/05/2017,OPERATIVA,SI;
141,ZONAS WIFI GRATIS PARA LA GENTE,ESP,6,Region Eje Cafetero - Antioquia,5,Antioquia,05858,Vegachí,N/A,1,PARQUE PRINCIPAL,585806001,CRA. 49A CON CALLE 50 (PARQUE PRINCIPAL,-74.798598,6.771538,24/05/2017,OPERATIVA,SI;
142,ZONAS WIFI GRATIS PARA LA GENTE,ESP,6,Region Eje Cafetero - Antioquia,5,Antioquia,05861,Venecia,N/A,1,PARQUE PRINCIPAL,586106001,CL. 51 #51-1 A 51-11 (PARQUE PRINCIPAL),-75.733994,5.963494,04/05/2017,OPERATIVA,SI;
143,ZONAS WIFI GRATIS PARA LA GENTE,ESP,6,Region Eje Cafetero - Antioquia,5,Antioquia,05873,Vigía del Fuerte,N/A,1,PARQUE PRINCIPAL,587306001,CRA 3#14-50,-76.896616,6.587436,25/05/2017,OPERATIVA,SI;
144,ZONAS WIFI GRATIS PARA LA GENTE,ESP,6,Region Eje Cafetero - Antioquia,5,Antioquia,05885,Yalí,N/A,1,PARQUE PRINCIPAL,588506001,PARQUE PRINCIPAL YALÍ,-74.842258,6.675005,24/05/2017,OPERATIVA,SI;
145,ZONAS WIFI GRATIS PARA LA GENTE,ESP,6,Region Eje Cafetero - Antioquia,5,Antioquia,05887,Yarumal,N/A,1,PARQUE PRINCIPAL,588706001,CRA. 20 #19-18,-75.41725,6.962936,24/05/2017,OPERATIVA,SI;
146,ZONAS WIFI GRATIS PARA LA GENTE,ESP,6,Region Eje Cafetero - Antioquia,5,Antioquia,05890,Yolombó,N/A,1,PARQUE PRINCIPAL,589006001,PARQUE PRINCIPAL YOLOMBO,-75.011752,6.599238,04/05/2017,OPERATIVA,SI;
147,ZONAS WIFI GRATIS PARA LA GENTE,ESP,5,Region Eje Cafetero - Antioquia,5,Antioquia,05893,Yondó,N/A,1,PARQUE PRINCIPAL,589306001,CALLE 49 CON CARRERA 54,-73.910008,7.006966,24/05/2017,OPERATIVA,SI;
148,ZONAS WIFI GRATIS PARA LA GENTE,ESP,6,Region Eje Cafetero - Antioquia,5,Antioquia,05895,Zaragoza,N/A,1,PARQUE PRINCIPAL,589506001,CARRERA 20 CON CALLE 20,-74.867986,7.492375,25/05/2017,OPERATIVA,SI;
149,ZONAS WIFI GRATIS PARA LA GENTE,4,4,Región Llano,81,Arauca,81001,Arauca,N/A,1,PARQUE GENERAL SANTANDER AVENIDA OLAYA HERRERA ENTRE CALLE 20 Y 30,8100101000,PARQUE GENERAL SANTANDER AVENIDA OLAYA HERRERA ENTRE CALLE 20 Y 30,-70.757027,7.093833,15/10/2016,OPERATIVA,SI;
"150,ZONAS WIFI GRATIS PARA LA GENTE,4,4,Región Llano,81,Arauca,81001,Arauca,N/A,1,""PARQUE DEL BARRIO PORVENIR """"CASA COMUNAL BARRIO PORVENIR"""" "",8100102001,CALLES 20 Y 19A CON CARRERAS 38 Y 38B ,-70.771972,7.078891,06/05/2017,OPERATIVA,SI";
151,ZONAS WIFI GRATIS PARA LA GENTE,4,4,Región Llano,81,Arauca,81001,Arauca,N/A,1,PARQUE DEL ARPA ,8100102002,CARRERA 11 CON CALLE 1,-70.748572,7.070672,13/05/2017,OPERATIVA,SI;
152,ZONAS WIFI GRATIS PARA LA GENTE,4,4,Región Llano,81,Arauca,81001,Arauca,N/A,1,POLIDEPORTIVO UNIÓN ,8100102003,ENTRE CALLES 24 Y 25 Y CARRERAS 13 Y 14,-70.75175,7.089222,02/06/2017,OPERATIVA,SI;
153,ZONAS WIFI GRATIS PARA LA GENTE,4,6,Región Llano,81,Arauca,81300,Fortul,N/A,1,PARQUE PRINCIPAL,8130002000,CLL 6 Y 7 KRA 25 Y 26,-71.774669,6.790125,24/10/2016,OPERATIVA,SI;
154,ZONAS WIFI GRATIS PARA LA GENTE,4,6,Región Llano,81,Arauca,81300,Fortul,N/A,1,CANCHA MÚLTIPLE B. RAMÍREZ,8130002001,CARRERA  16ª ENTRE CALLE 8 Y 9,-71.771328,6.797981,06/05/2017,OPERATIVA,SI;
155,ZONAS WIFI GRATIS PARA LA GENTE,4,6,Región Llano,81,Arauca,81300,Fortul,N/A,1,ZONA CANCHA NUEVO FORTUL,8130002002,ZONA NUEVO FORTUL,-71.761678,6.805209,10/05/2017,OPERATIVA,SI;
"156,ZONAS WIFI GRATIS PARA LA GENTE,4,6,Región Llano,81,Arauca,81300,Fortul,N/A,1,ZONA CICLO VÍA,8130002003,""CALLE 7,  ENTRE CARRERA 12  Y 14"",-71.767614,6.799783,02/06/2017,OPERATIVA,SI";
157,ZONAS WIFI GRATIS PARA LA GENTE,1,6,Región Caribe,8,Atlántico,08078,Baranoa,N/A,1,PLAZA PRINCIPAL,807804001,CARRERA 21 CON CALLE 20,-74.914267,10.796216,08/06/2017,OPERATIVA,SI;
158,ZONAS WIFI GRATIS PARA LA GENTE,1,6,Región Caribe,8,Atlántico,08078,Baranoa,N/A,1,PARQUE ESPEJO DE AGUA,807806001,CARRERA 19 NO 11- 331,-74.915111,10.802444,26/05/2017,OPERATIVA,SI;
159,ZONAS WIFI GRATIS PARA LA GENTE,1,ESP,Región Caribe,8,Atlántico,08001,Barranquilla,N/A,1,PARQUE UNIVERSAL AV MURILLO TORO ENTRE CARRERA 35 Y 37A,800101000,PARQUE UNIVERSAL AV MURILLO TORO ENTRE CARRERA 35 Y 37A,-74.787369,10.979161,15/10/2016,OPERATIVA,SI;
160,ZONAS WIFI GRATIS PARA LA GENTE,1,ESP,Región Caribe,8,Atlántico,08001,Barranquilla,N/A,1,PARQUE LOS ANDES,800104001,CLL 63 N 26 50,-74.803513,10.974981,06/04/2017,OPERATIVA,SI;
161,ZONAS WIFI GRATIS PARA LA GENTE,1,ESP,Región Caribe,8,Atlántico,08001,Barranquilla,N/A,1,PLAZA DE LA PAZ,800104002,CRA 46 CON CLL 53,-74.788949,10.987977,02/05/2017,OPERATIVA,SI;
162,ZONAS WIFI GRATIS PARA LA GENTE,1,ESP,Región Caribe,8,Atlántico,08001,Barranquilla,N/A,1,PARQUE LAS AMERICAS,800104003,CLL 64 N 49 10,-74.797906,10.993958,02/05/2017,OPERATIVA,SI;
163,ZONAS WIFI GRATIS PARA LA GENTE,1,ESP,Región Caribe,8,Atlántico,08001,Barranquilla,N/A,1,PARQUE ALMENDRA,800104004,CLL 38 N 30 14,-74.783683,10.970949,02/05/2017,OPERATIVA,SI;
164,ZONAS WIFI GRATIS PARA LA GENTE,1,ESP,Región Caribe,8,Atlántico,08001,Barranquilla,N/A,1,PARQUE SAN JOSE,800104005,CALLE 40B CON CARRERA 21,-74.789791,10.96152,02/05/2017,OPERATIVA,SI;
165,ZONAS WIFI GRATIS PARA LA GENTE,1,ESP,Región Caribe,8,Atlántico,08001,Barranquilla,N/A,1,PARQUE LOS FUNDADORES,800104006,CRA 54 N 59 64,-74.793825,10.99495,03/05/2017,OPERATIVA,SI;
166,ZONAS WIFI GRATIS PARA LA GENTE,1,ESP,Región Caribe,8,Atlántico,08001,Barranquilla,N/A,1,PARQUE LAS NIEVES,800104007,CRA 18 N 24 60,-74.780042,10.955798,03/05/2017,OPERATIVA,SI;
167,ZONAS WIFI GRATIS PARA LA GENTE,1,ESP,Región Caribe,8,Atlántico,08001,Barranquilla,N/A,1,PARQUE SANTO DOMINGO SABIO,800104008,CRA29 N 57 50,-74.80066,10.976269,03/05/2017,OPERATIVA,SI;
168,ZONAS WIFI GRATIS PARA LA GENTE,1,ESP,Región Caribe,8,Atlántico,08001,Barranquilla,N/A,1,PLAZOLETA MONUMENTO A LA BANDERA,800104009,CRA 54 N 52 258 Y CLL 58 N 54 96,-74.790671,10.993073,03/05/2017,OPERATIVA,SI;
169,ZONAS WIFI GRATIS PARA LA GENTE,1,ESP,Región Caribe,8,Atlántico,08001,Barranquilla,N/A,1,PARQUE LIMONCITO,800104010,CLL 86B N 73 69,-74.811678,11.020388,03/05/2017,OPERATIVA,SI;
170,ZONAS WIFI GRATIS PARA LA GENTE,1,ESP,Región Caribe,8,Atlántico,08001,Barranquilla,N/A,1,PARQUE TRES AVE MARIAS,800104011,CLL 81 N 69 25,-74.807481,11.015061,04/05/2017,OPERATIVA,SI;
171,ZONAS WIFI GRATIS PARA LA GENTE,1,ESP,Región Caribe,8,Atlántico,08001,Barranquilla,N/A,1,PARQUE MODELO,800104012,CLLS 52 Y 56 ENTRE CRAS 65 Y 66,-74.788567,10.998823,04/05/2017,OPERATIVA,SI;
172,ZONAS WIFI GRATIS PARA LA GENTE,1,ESP,Región Caribe,8,Atlántico,08001,Barranquilla,N/A,1,PARQUE EUGENIO MACIAS,800104013,CRA 44 N 79B 44,-74.814432,10.997812,04/05/2017,OPERATIVA,SI;
173,ZONAS WIFI GRATIS PARA LA GENTE,1,ESP,Región Caribe,8,Atlántico,08001,Barranquilla,N/A,1,PARQUE CISNEROS,800104014,CRA 68 ENTRE CRAS 64 Y 65,-74.791444,11.00112,04/05/2017,OPERATIVA,SI;
174,ZONAS WIFI GRATIS PARA LA GENTE,1,ESP,Región Caribe,8,Atlántico,08001,Barranquilla,N/A,1,PARQUE LAS CUMBRES,800104015,CLL 87 N 42E 05 BQ 11,-74.826319,10.99738,05/05/2017,OPERATIVA,SI;
"175,ZONAS WIFI GRATIS PARA LA GENTE,1,ESP,Región Caribe,8,Atlántico,08001,Barranquilla,N/A,1,PARQUE LA FLORESTA,800104016,""CLL 84 N 75B 29, CRA 75E N 84 21"",-74.8096,11.021712,05/05/2017,OPERATIVA,SI";
176,ZONAS WIFI GRATIS PARA LA GENTE,1,ESP,Región Caribe,8,Atlántico,08001,Barranquilla,N/A,1,PARQUE BETANIA,800104017,CLL 75 N 38A 05,-74.814098,10.98747,05/05/2017,OPERATIVA,SI;
177,ZONAS WIFI GRATIS PARA LA GENTE,1,ESP,Región Caribe,8,Atlántico,08001,Barranquilla,N/A,1,PARQUE EL GOLF,800104018,CALE 81 ENTRE CARRERA 59B Y 59C,-74.807458,11.010428,06/05/2017,OPERATIVA,SI;
"178,ZONAS WIFI GRATIS PARA LA GENTE,1,ESP,Región Caribe,8,Atlántico,08001,Barranquilla,N/A,1,""PARQUE NAPOLEON SALCEDO COTES """"OLAYA"""""",800104019,CRA 30 N 70B 10,-74.809763,10.979974,06/05/2017,OPERATIVA,SI";
179,ZONAS WIFI GRATIS PARA LA GENTE,1,ESP,Región Caribe,8,Atlántico,08001,Barranquilla,N/A,1,PARQUE EL SILENCIO,800104020,CLL 73 N 26B2 27,-74.813303,10.977316,06/05/2017,OPERATIVA,SI;
180,ZONAS WIFI GRATIS PARA LA GENTE,1,ESP,Región Caribe,8,Atlántico,08001,Barranquilla,N/A,1,PARQUE LAS MERCEDES,800104021,CLL 79A Y 79B ENTRE CRAS 34 Y 35,-74.818033,10.984229,05/05/2017,OPERATIVA,SI;
181,ZONAS WIFI GRATIS PARA LA GENTE,1,ESP,Región Caribe,8,Atlántico,08001,Barranquilla,N/A,1,PARQUE EL SANTUARIO (SAN FELIPE),800104022,CLL 70B CRA 24B,-74.810635,10.972882,06/05/2017,OPERATIVA,SI;
182,ZONAS WIFI GRATIS PARA LA GENTE,1,ESP,Región Caribe,8,Atlántico,08001,Barranquilla,N/A,1,PARQUE SAGRADO CORAZON,800104023,CRA 42E N 80 140,-74.817944,10.994092,04/05/2017,OPERATIVA,SI;
183,ZONAS WIFI GRATIS PARA LA GENTE,1,ESP,Región Caribe,8,Atlántico,08001,Barranquilla,N/A,1,PARQUE METROPOLITANO,800104024,AV CIRCUNVALAR CON MURILLO,-74.800125,10.924962,23/05/2017,OPERATIVA,SI;
184,ZONAS WIFI GRATIS PARA LA GENTE,1,ESP,Región Caribe,8,Atlántico,08001,Barranquilla,N/A,1,PARQUE EL CARMEN,800104025,CLL 49 N 19D 15,-74.798711,10.963934,23/05/2017,OPERATIVA,SI;
185,ZONAS WIFI GRATIS PARA LA GENTE,1,ESP,Región Caribe,8,Atlántico,08001,Barranquilla,N/A,1,PARQUE LOS PITUFOS,800104026,CLL 46C N 8B SUR 11,-74.803901,10.926847,23/05/2017,OPERATIVA,SI;
186,ZONAS WIFI GRATIS PARA LA GENTE,1,ESP,Región Caribe,8,Atlántico,08001,Barranquilla,N/A,1,PARQUE JUAN MINA,800104027,CRA 31B CLL 124,-74.893049,10.954079,23/05/2017,OPERATIVA,SI;
187,ZONAS WIFI GRATIS PARA LA GENTE,1,ESP,Región Caribe,8,Atlántico,08001,Barranquilla,N/A,1,PARQUE PLACITA DEL VALLE,800104028,CRA 21B ENTRE CLLS 70C Y 68C,-74.810955,10.968763,23/05/2017,OPERATIVA,SI;
188,ZONAS WIFI GRATIS PARA LA GENTE,1,ESP,Región Caribe,8,Atlántico,08001,Barranquilla,N/A,1,PARQUE METROPOLITANO ZONA 2,800104029,MURILLO CON CIRCUNVALAR,-74.799915,10.924176,23/05/2017,OPERATIVA,SI;
189,ZONAS WIFI GRATIS PARA LA GENTE,1,ESP,Región Caribe,8,Atlántico,08001,Barranquilla,N/A,1,PARQUE MONTECRISTO,800104030,CALLE 47 N 54 05,-74.784782,10.994366,23/05/2017,OPERATIVA,SI;
190,ZONAS WIFI GRATIS PARA LA GENTE,1,ESP,Región Caribe,8,Atlántico,08001,Barranquilla,N/A,1,PARQUE PRUDENCIO PADILLA,800104031,CALLE 98 ENTRE CARRERA 59B Y CARRERA 64,-74.823524,11.018657,23/05/2017,OPERATIVA,SI;
191,ZONAS WIFI GRATIS PARA LA GENTE,1,ESP,Región Caribe,8,Atlántico,08001,Barranquilla,N/A,1,PARQUE BOSQUES DEL NORTE,800104032,CLL 94 N 55 53,-74.822423,11.014262,23/05/2017,OPERATIVA,SI;
192,ZONAS WIFI GRATIS PARA LA GENTE,1,ESP,Región Caribe,8,Atlántico,08001,Barranquilla,N/A,1,PARQUE WASHINGTON,800104033,CLL 80 N 53 18,-74.81101,11.005472,23/05/2017,OPERATIVA,SI;
193,ZONAS WIFI GRATIS PARA LA GENTE,1,ESP,Región Caribe,8,Atlántico,08001,Barranquilla,N/A,1,PARQUE SURI SALCEDO,800104034,CLL 70 N 46 15,-74.804303,10.994019,06/06/2017,OPERATIVA,SI;
194,ZONAS WIFI GRATIS PARA LA GENTE,1,ESP,Región Caribe,8,Atlántico,08001,Barranquilla,N/A,1,PARQUE DE LOS MÚSICOS (PORTAL TRANSMETRO JOE ARROYO),800104035,CRA 46 CON CLL 74,-74.806997,10.995206,06/06/2017,OPERATIVA,SI;
195,ZONAS WIFI GRATIS PARA LA GENTE,1,ESP,Región Caribe,8,Atlántico,08001,Barranquilla,N/A,1,POLIDEPORTIVO LA MAGDALENA,800104036,CRA 6B CON CLL 35B,-74.792507,10.943269,06/06/2017,OPERATIVA,SI;
196,ZONAS WIFI GRATIS PARA LA GENTE,1,ESP,Región Caribe,8,Atlántico,08001,Barranquilla,N/A,1,PARQUE VENEZUELA,800104037,CLL 87 Y 90 ENTRE CRAS 43B Y 44,-74.824047,11.001494,06/06/2017,OPERATIVA,SI;
197,ZONAS WIFI GRATIS PARA LA GENTE,1,ESP,Región Caribe,8,Atlántico,08001,Barranquilla,N/A,1,PARQUE ADELITA DE CHAR,800104038,CLL 19 CRA 17C,-74.871168,11.032336,06/06/2017,OPERATIVA,SI;
198,ZONAS WIFI GRATIS PARA LA GENTE,1,ESP,Región Caribe,8,Atlántico,08001,Barranquilla,N/A,1,PARQUE ADELITA DE CHAR 2 DA ETAPA,800104039,CLL 21 CRA 17,-74.872302,11.032417,06/06/2017,OPERATIVA,SI;
199,ZONAS WIFI GRATIS PARA LA GENTE,1,ESP,Región Caribe,8,Atlántico,08001,Barranquilla,N/A,1,PARQUE ADELITA DE CHAR 1RA ETAPA,800104040,CRA 14 CLL 18C,-74.869133,11.033025,06/06/2017,OPERATIVA,SI;
200,ZONAS WIFI GRATIS PARA LA GENTE,1,ESP,Región Caribe,8,Atlántico,08001,Barranquilla,N/A,1,PARQUE JARDÍN BOTÁNICO,800104041,CRA 13C ENTRE CLLS 40B Y 44,-74.796072,10.952394,06/06/2017,OPERATIVA,SI;
201,ZONAS WIFI GRATIS PARA LA GENTE,1,ESP,Región Caribe,8,Atlántico,08001,Barranquilla,N/A,1,PARQUE BARLOVENTO,800104042,VIA 40 CON CRA 50B,-74.778521,10.989458,06/06/2017,OPERATIVA,SI;
202,ZONAS WIFI GRATIS PARA LA GENTE,1,ESP,Región Caribe,8,Atlántico,08001,Barranquilla,N/A,1,PARQUE DOS VILLAS,800104043,CLL 85 ENTRE CRAS 67 Y 70,-74.810815,11.015784,06/06/2017,OPERATIVA,SI;
203,ZONAS WIFI GRATIS PARA LA GENTE,1,ESP,Región Caribe,8,Atlántico,08001,Barranquilla,N/A,1,PARQUE CANCHA LAS PALMAS,800104044,CLLS 34 Y 34 A ENTRE CRAS 8B Y 8D,-74.788828,10.947887,06/06/2017,OPERATIVA,SI;
204,ZONAS WIFI GRATIS PARA LA GENTE,1,ESP,Región Caribe,8,Atlántico,08001,Barranquilla,N/A,1,PARQUE ALEJANDRO CHAR,800104045,CRA 31B CLL 124,-74.846001,10.979585,06/06/2017,OPERATIVA,SI;
205,ZONAS WIFI GRATIS PARA LA GENTE,1,ESP,Región Caribe,8,Atlántico,08001,Barranquilla,N/A,1,PARQUE PINAR DEL RIO,800104046,D 141B T 34 VÍA JUAN MINA,-74.866768,10.964694,06/06/2017,OPERATIVA,SI;
206,ZONAS WIFI GRATIS PARA LA GENTE,1,ESP,Región Caribe,8,Atlántico,08001,Barranquilla,N/A,1,PARQUE BELLAVISTA,800104047,CLL 72 ENTRE CRAS 61 Y 61B,-74.79577,11.002579,06/06/2017,OPERATIVA,SI;
207,ZONAS WIFI GRATIS PARA LA GENTE,1,ESP,Región Caribe,8,Atlántico,08001,Barranquilla,N/A,1,JARDIN BOTÁNICO ZONA 2,800104048,CRA 29B Y 29C ENTRE CLLS 7 Y 6A,-74.795808,10.951757,06/06/2017,OPERATIVA,SI;
208,ZONAS WIFI GRATIS PARA LA GENTE,1,ESP,Región Caribe,8,Atlántico,08001,Barranquilla,N/A,1,PARQUE LAS FLORES,800104049,CRA 86 CON CLL 108,-74.826258,11.041021,06/06/2017,OPERATIVA,SI;
209,ZONAS WIFI GRATIS PARA LA GENTE,1,ESP,Región Caribe,8,Atlántico,08001,Barranquilla,N/A,1,PARQUE CALAN CALA,800104050,CRA 31 CLL 50,-74.791926,10.97477,06/06/2017,OPERATIVA,SI;
210,ZONAS WIFI GRATIS PARA LA GENTE,1,ESP,Región Caribe,8,Atlántico,08001,Barranquilla,N/A,1,ERNESTO MCAUSLAND,800104051,CARRERA 9 ENTRE CALLE 17B Y CALLE 11,-74.772637,10.94995,06/06/2017,OPERATIVA,SI;
211,ZONAS WIFI GRATIS PARA LA GENTE,1,ESP,Región Caribe,8,Atlántico,08001,Barranquilla,N/A,1,PARQUE CORREGIMIENTO LA PLAYA,800104052,CRA 10 CON CALLE 15,-74.865644,11.032686,06/06/2017,OPERATIVA,SI;
212,ZONAS WIFI GRATIS PARA LA GENTE,1,ESP,Región Caribe,8,Atlántico,08001,Barranquilla,N/A,1,PARQUE SAN MARINO,800104053,CRA 77A N 85 198,-74.806302,11.024362,06/06/2017,OPERATIVA,SI;
213,ZONAS WIFI GRATIS PARA LA GENTE,1,ESP,Región Caribe,8,Atlántico,08001,Barranquilla,N/A,1,PARQUE LA INMACULADA,800104054,CLL 36 Y 37C CRA 5A Y 6,-74.791665,10.940726,27/06/2017,OPERATIVA,SI;
214,ZONAS WIFI GRATIS PARA LA GENTE,1,ESP,Región Caribe,8,Atlántico,08001,Barranquilla,N/A,1,MALECON DEL BICENTENARIO,800104055,CLL 6 CON CRA 51 SECTOR LA LOMA,-74.769426,10.995634,28/06/2017,OPERATIVA,SI;
215,ZONAS WIFI GRATIS PARA LA GENTE,1,ESP,Región Caribe,8,Atlántico,08001,Barranquilla,N/A,1,PASEO BOLÍVAR 2,800104056,CLL 34 ENTRE CRAS 39 Y 43,-74.778323,10.980367,29/06/2017,OPERATIVA,SI;
216,ZONAS WIFI GRATIS PARA LA GENTE,1,ESP,Región Caribe,8,Atlántico,08001,Barranquilla,N/A,1,PARQUE LA VICTORIA,800104057,CLL 45 Y 47 CRA 10E,-74.799168,10.952402,16/11/2017,OPERATIVA,SI;
217,ZONAS WIFI GRATIS PARA LA GENTE,1,ESP,Región Caribe,8,Atlántico,08001,Barranquilla,N/A,1,PARQUE FLACO MELÉNDEZ,800104058,CALLE 53 CON CARRERA 19D (ESQUINA),-74.799941,10.965437,25/07/2017,OPERATIVA,SI;
218,ZONAS WIFI GRATIS PARA LA GENTE,1,ESP,Región Caribe,8,Atlántico,08001,Barranquilla,N/A,1,CANCHA SAN CARLOS BORROMEO,800104059,CRA 20 N 112D 30,-74.840926,10.97192,25/07/2017,OPERATIVA,SI;
219,ZONAS WIFI GRATIS PARA LA GENTE,1,ESP,Región Caribe,8,Atlántico,08001,Barranquilla,N/A,1,PLAZOLETA DE LA CATEDRAL,800104060,CLL 70B CRA 24B,-74.810635,10.972882,13/07/2017,OPERATIVA,SI;
220,ZONAS WIFI GRATIS PARA LA GENTE,1,ESP,Región Caribe,8,Atlántico,08001,Barranquilla,N/A,1,PARQUE CARRIZAL,800104061,CLL 49 N 3-17,-74.803419,10.936154,21/06/2017,OPERATIVA,SI;
221,ZONAS WIFI GRATIS PARA LA GENTE,1,ESP,Región Caribe,8,Atlántico,08001,Barranquilla,N/A,1,BOULEVARD SIMON BOLIVAR - TRAMO OCCIDENTAL Y ORIENTAL (ZONA 1),800104062,CLL 19 ENTRE CRAS 1B Y 7C,-74.775689,10.946869,17/06/2017,OPERATIVA,SI;
222,ZONAS WIFI GRATIS PARA LA GENTE,1,ESP,Región Caribe,8,Atlántico,08001,Barranquilla,N/A,1,PLAZOLETA PARQUE CULTURAL DEL CARIBE,800104063,VÍA 40 CON CR 46,-74.777577,10.986365,28/06/2017,OPERATIVA,SI;
223,ZONAS WIFI GRATIS PARA LA GENTE,1,ESP,Región Caribe,8,Atlántico,08001,Barranquilla,N/A,1,PLAZOLETA LA INTENDENCIA FLUVIAL,800104064,VIA 40 CON CRA 46,-74.775848,10.986127,21/06/2017,OPERATIVA,SI;
224,ZONAS WIFI GRATIS PARA LA GENTE,1,ESP,Región Caribe,8,Atlántico,08001,Barranquilla,N/A,1,PARQUE LOS CANOSOS,800104065,CRA 1C CON CLL 41D,-74.795401,10.930411,17/06/2017,OPERATIVA,SI;
225,ZONAS WIFI GRATIS PARA LA GENTE,1,ESP,Región Caribe,8,Atlántico,08001,Barranquilla,N/A,1,PARQUE VIRGEN DEL CARMEN,800104066,CRA 3SUR ENTRE CLLS 47 Y 47A,-74.806814,10.930217,21/06/2017,OPERATIVA,SI;
226,ZONAS WIFI GRATIS PARA LA GENTE,1,ESP,Región Caribe,8,Atlántico,08001,Barranquilla,N/A,1,PARQUE LA UNION I,800104067,CLL 35B N 14 30 CRA 14 N 35A 24,-74.789375,10.951931,18/05/2017,OPERATIVA,SI;
227,ZONAS WIFI GRATIS PARA LA GENTE,1,ESP,Región Caribe,8,Atlántico,08001,Barranquilla,N/A,1,PARQUE MADELAINE CERTAIN,800104068,CLL 68 ENTRE CRAS 1C Y 1D,-74.817689,10.933909,21/06/2017,OPERATIVA,SI;
228,ZONAS WIFI GRATIS PARA LA GENTE,1,ESP,Región Caribe,8,Atlántico,08001,Barranquilla,N/A,1,PARQUE SAN VICENTE,800104069,CLL 53D CRA 17,-74.803166,10.961311,17/06/2017,OPERATIVA,SI;
229,ZONAS WIFI GRATIS PARA LA GENTE,1,ESP,Región Caribe,8,Atlántico,08001,Barranquilla,N/A,1,PARQUE VICENTE NOGUERA Y ELSA DE LA ESPRIELLA,800104070,CRA 15 A1 CON CLL 85,-74.826588,10.968906,21/06/2017,OPERATIVA,SI;
230,ZONAS WIFI GRATIS PARA LA GENTE,1,ESP,Región Caribe,8,Atlántico,08001,Barranquilla,N/A,1,CANCHA DE MICROFUTBOL CARRIZAL,800104071,CLL 49 CON CRA 2F,-74.804961,10.935011,21/06/2017,OPERATIVA,SI;
231,ZONAS WIFI GRATIS PARA LA GENTE,1,ESP,Región Caribe,8,Atlántico,08001,Barranquilla,N/A,1,PARQUE BICENTENARIO - ETAPA 1,800104072,CRA 12A ENTRE CLLS 99C Y 110 B. LA PAZ,-74.837528,10.964324,21/06/2017,OPERATIVA,SI;
232,ZONAS WIFI GRATIS PARA LA GENTE,1,ESP,Región Caribe,8,Atlántico,08001,Barranquilla,N/A,1,BOULEVARD VILLA CAROLINA,800104073,CLL 92 Y 93 ENTRE CRAS 70 Y 73,-74.81614,11.021356,20/06/2017,OPERATIVA,SI;
233,ZONAS WIFI GRATIS PARA LA GENTE,1,ESP,Región Caribe,8,Atlántico,08001,Barranquilla,N/A,1,PARQUE SAN PIO,800104074,CLL 73 CRA 8A,-74.818718,10.952744,30/06/2017,OPERATIVA,SI;
234,ZONAS WIFI GRATIS PARA LA GENTE,1,ESP,Región Caribe,8,Atlántico,08001,Barranquilla,N/A,1,PARQUE SAN MARTIN,800104075,CLL 24 N 6A 15,-74.77889,10.94615,17/06/2017,OPERATIVA,SI;
235,ZONAS WIFI GRATIS PARA LA GENTE,1,ESP,Región Caribe,8,Atlántico,08001,Barranquilla,N/A,1,CANCHA PARQUE SAN MARTÍN,800104077,CALLE 51B ENTRE CARRERAS 3SUR Y 4SUR.,-74.813108,10.930345,22/07/2017,OPERATIVA,SI;
236,ZONAS WIFI GRATIS PARA LA GENTE,1,ESP,Región Caribe,8,Atlántico,08001,Barranquilla,N/A,1,PARQUE REBOLO,800104076,CARRERA 32 CON CALLE 9,-74.771782,10.969213,17/06/2017,OPERATIVA,SI;
237,ZONAS WIFI GRATIS PARA LA GENTE,1,ESP,Región Caribe,8,Atlántico,08001,Barranquilla,N/A,1,PARQUE VILLA FLOR,800104078,CRA 6H Y 6G ENTRE CLL 96B Y 97,-74.827155,10.947273,16/11/2017,OPERATIVA,SI;
238,ZONAS WIFI GRATIS PARA LA GENTE,1,ESP,Región Caribe,8,Atlántico,08001,Barranquilla,N/A,1,PARQUE VILLA SAN CARLOS - EN CONSTRUCCIÓN,800104079,CLL 99C ENTRE CRAS 1 Y 3SUR,-74.831522,10.934371,19/10/2017,OPERATIVA,SI;
239,ZONAS WIFI GRATIS PARA LA GENTE,1,ESP,Región Caribe,8,Atlántico,08001,Barranquilla,N/A,1,BOULEVARD 7 BOCAS,800104080,CRA 41 ENTRE CLLS 57 Y 63B,-74.79805,10.984748,20/06/2017,OPERATIVA,SI;
240,ZONAS WIFI GRATIS PARA LA GENTE,1,ESP,Región Caribe,8,Atlántico,08001,Barranquilla,N/A,1,PARQUE BOYACA,800104081,CRA 19 ENTRE CLLS 35 Y 35B,-74.788098,10.956661,17/06/2017,OPERATIVA,SI;
241,ZONAS WIFI GRATIS PARA LA GENTE,1,ESP,Región Caribe,8,Atlántico,08001,Barranquilla,N/A,1,PARQUE ELECTRIFICADORA EL SILENCIO,800104082,CLL 76 CRA 26D Y 27,-74.813303,10.977316,26/11/2017,OPERATIVA,SI;
242,ZONAS WIFI GRATIS PARA LA GENTE,1,ESP,Región Caribe,8,Atlántico,08001,Barranquilla,N/A,1,PARQUE MARIA AUXILIADORA,800104083,CLL 40 Y 41 CRA 7E Y 7F,-74.795439,10.944334,21/06/2017,OPERATIVA,SI;
243,ZONAS WIFI GRATIS PARA LA GENTE,1,ESP,Región Caribe,8,Atlántico,08001,Barranquilla,N/A,1,PARQUE VIGORÓN MEJÍA (LAS PALMITAS),800104084,CALLE 35B CON CARRERA 8D (ESQUINA).,-74.791899,10.948136,21/07/2017,OPERATIVA,SI;
244,ZONAS WIFI GRATIS PARA LA GENTE,1,ESP,Región Caribe,8,Atlántico,08001,Barranquilla,N/A,1,BOULEVARD SIMON BOLIVAR ZONA 3,800104085,CALLE 19 ENTRE CARRERA 4C Y 5 B,-74.777443,10.942823,17/06/2017,OPERATIVA,SI;
245,ZONAS WIFI GRATIS PARA LA GENTE,1,ESP,Región Caribe,8,Atlántico,08001,Barranquilla,N/A,1,PARQUE DE LOS SUEÑOS,800104086,CLL 91 N 39 69,-74.835477,10.984909,17/06/2017,OPERATIVA,SI;
246,ZONAS WIFI GRATIS PARA LA GENTE,1,ESP,Región Caribe,8,Atlántico,08001,Barranquilla,N/A,1,PARQUE EL CAMPITO - EN CONSTRUCCIÓN,800104087,CLL 37C CRA 8D,-74.794057,10.948307,21/07/2017,OPERATIVA,SI;
247,ZONAS WIFI GRATIS PARA LA GENTE,1,ESP,Región Caribe,8,Atlántico,08001,Barranquilla,N/A,1,PARQUE LAS CAYENAS,800104088,CLL 48G CRA 10 SUR,-74.809039,10.923501,28/06/2017,OPERATIVA,SI;
248,ZONAS WIFI GRATIS PARA LA GENTE,1,ESP,Región Caribe,8,Atlántico,08001,Barranquilla,N/A,1,BOULEVARD SIMON BOLIVAR ZONA 2,800104089,CALLE 19 ENTRE CARRERA 5B Y 6B,-74.776619,10.944798,17/06/2017,OPERATIVA,SI;
249,ZONAS WIFI GRATIS PARA LA GENTE,1,ESP,Región Caribe,8,Atlántico,08001,Barranquilla,N/A,1,MALECON DEL BICENTENARIO ZONA 2,800104090,CLL 6 CON CRA 51 SECTOR LA LOMA,-74.771304,10.998045,20/06/2017,OPERATIVA,SI;
250,ZONAS WIFI GRATIS PARA LA GENTE,1,ESP,Región Caribe,8,Atlántico,08001,Barranquilla,N/A,1,PARQUE JAIRO CEPEDA,800104091,CALLE 79 CON CARRERA 59B (ESQUINA).,-74.804419,11.00884,22/07/2017,OPERATIVA,SI;
251,ZONAS WIFI GRATIS PARA LA GENTE,1,ESP,Región Caribe,8,Atlántico,08001,Barranquilla,N/A,1,PARQUE DE RAQUETAS- CANCHAS DE TENIS ,800104092,CRA 53 CON CLL 100,-74.830173,11.013947,04/04/2018,OPERATIVA,SI;
252,ZONAS WIFI GRATIS PARA LA GENTE,1,ESP,Región Caribe,8,Atlántico,08001,Barranquilla,N/A,1,PLAZA DE SAN NICOLAS,800104093,CLL 32 Y 33 ENTRE CRAS 41 Y 42,-74.777671,10.979989,21/06/2017,OPERATIVA,SI;
253,ZONAS WIFI GRATIS PARA LA GENTE,1,ESP,Región Caribe,8,Atlántico,08001,Barranquilla,N/A,1,PLAZA DE SAN ROQUE,800104094,CLL 30 CON CRA 38 ESQ.,-74.777845,10.97597,22/06/2017,OPERATIVA,SI;
254,ZONAS WIFI GRATIS PARA LA GENTE,1,ESP,Región Caribe,8,Atlántico,08001,Barranquilla,N/A,1,PARQUE DE LA ELECTRIFICADORA RIOMAR,800104095,CRA 64 CON CALLE 85,-74.813926,11.013775,20/06/2017,OPERATIVA,SI;
255,ZONAS WIFI GRATIS PARA LA GENTE,1,ESP,Región Caribe,8,Atlántico,08001,Barranquilla,N/A,1,TERMINAL DE TRANSPORTES,800104096,PROLONGACIÓN CALLE MURILLO - KM 1.5,-74.793701,10.909585,13/07/2017,OPERATIVA,SI;
256,ZONAS WIFI GRATIS PARA LA GENTE,1,ESP,Región Caribe,8,Atlántico,08001,Barranquilla,N/A,1,PARQUE CRISTO REY - EN CONSTRUCCIÓN,800104097,CRA 21B CON CLL 52 ESQ,-74.797827,10.966644,31/07/2017,OPERATIVA,SI;
257,ZONAS WIFI GRATIS PARA LA GENTE,1,ESP,Región Caribe,8,Atlántico,08001,Barranquilla,N/A,1,PASEO BOLIVAR ZONA 1,800104098,CLL 34 ENTRE CRAS 38 Y 45,-74.777721,10.982747,27/06/2017,OPERATIVA,SI;
258,ZONAS WIFI GRATIS PARA LA GENTE,1,ESP,Región Caribe,8,Atlántico,08001,Barranquilla,N/A,1,PASEO PEATONAL CEEC,800104099,VIA 40 N 79B 06,-74.800693,11.023386,31/07/2017,OPERATIVA,SI;
259,ZONAS WIFI GRATIS PARA LA GENTE,1,ESP,Región Caribe,8,Atlántico,08001,Barranquilla,N/A,1,PARQUE BOULEVAR BUENAVISTA,800104100,CALLE 99 CRA 52 HASTA CRA 59,-74.823771,11.019816,17/06/2017,OPERATIVA,SI;
260,ZONAS WIFI GRATIS PARA LA GENTE,1,ESP,Región Caribe,8,Atlántico,08001,Barranquilla,N/A,1,PARQUE LOS TRUPILLOS,800106001,CALLE 28 CON CARRERA 21,-74.783393,10.958102,24/05/2017,OPERATIVA,SI;
261,ZONAS WIFI GRATIS PARA LA GENTE,1,ESP,Región Caribe,8,Atlántico,08001,Barranquilla,N/A,1,PARQUE FELPHE,800106002,DESPUES DE PARCELACION EL HATO,-74.804282,10.928757,24/05/2017,OPERATIVA,SI;
262,ZONAS WIFI GRATIS PARA LA GENTE,1,ESP,Región Caribe,8,Atlántico,08001,Barranquilla,N/A,1,PARQUE NUESTRA SEÑORA DE GUADALUPE,800106003,SUROCCIDENTE CIUDADELA 20 DE JULIO. K2A C45D,-74.80604,10.926872,24/05/2017,OPERATIVA,SI;
263,ZONAS WIFI GRATIS PARA LA GENTE,1,6,Región Caribe,8,Atlántico,08137,Campo de La Cruz,N/A,1,PARQUE PRINCIPAL,813704001,CALLE 8 CON CRA 8,-74.880703,10.380258,08/06/2017,OPERATIVA,SI;
264,ZONAS WIFI GRATIS PARA LA GENTE,1,6,Región Caribe,8,Atlántico,08137,Campo de La Cruz,N/A,1,PARQUE INMACULADA,813706001,CARRERA 16 ENTRE CALLE 9 Y 10,-74.889444,10.378889,25/05/2017,OPERATIVA,SI;
265,ZONAS WIFI GRATIS PARA LA GENTE,1,6,Región Caribe,8,Atlántico,08141,Candelaria,N/A,1,PLAZA PRINCIPAL,814106001,CALLE 12 #11 - 69,-74.880345,10.455878,25/05/2017,OPERATIVA,SI;
266,ZONAS WIFI GRATIS PARA LA GENTE,1,5,Región Caribe,8,Atlántico,08296,Galapa,N/A,1,PLAZA PRINCIPAL,829604001,CARRERA 13 CALLE 18 PLAZA PRINCIPAL,-74.886473,10.899447,08/06/2017,OPERATIVA,SI;
267,ZONAS WIFI GRATIS PARA LA GENTE,1,5,Región Caribe,8,Atlántico,08296,Galapa,N/A,1,MUNDO FELÍZ,829604002, CALLE 16 CRA 35,-74.88518,10.916986,29/06/2017,OPERATIVA,SI;
268,ZONAS WIFI GRATIS PARA LA GENTE,1,6,Región Caribe,8,Atlántico,08372,Juan de Acosta,N/A,1,CORREGIMIENTO LA CHORRERA PLAZA PRINCIPAL,837204001,PLAZA PRINCIPAL DEL CORREGIMIENTO DE CHORRERA,-75.011413,10.792833,29/06/2017,OPERATIVA,SI;
269,ZONAS WIFI GRATIS PARA LA GENTE,1,6,Región Caribe,8,Atlántico,08421,Luruaco,N/A,1,PLAZA CENTRAL LURUACO,842104001,CARRERA 21 CON CALLE 17,-75.143979,10.609807,08/06/2017,OPERATIVA,SI;
270,ZONAS WIFI GRATIS PARA LA GENTE,1,6,Región Caribe,8,Atlántico,08421,Luruaco,N/A,1,SECTOR ESTADIO DE BEISBOL,842106001,CALLE 19 ENTR CARRERA 15 Y 16,-75.147811,10.609293,25/05/2017,OPERATIVA,SI;
271,ZONAS WIFI GRATIS PARA LA GENTE,1,4,Región Caribe,8,Atlántico,08433,Malambo,N/A,1,PLAZA PRINCIPAL,843304001,CALLE 7 CRA 11,-74.772491,10.859316,26/05/2017,OPERATIVA,SI;
272,ZONAS WIFI GRATIS PARA LA GENTE,1,4,Región Caribe,8,Atlántico,08433,Malambo,N/A,1,PARQUE LA LUNA,843304002,CALLE 4A NO 4SUR 19,-74.770622,10.843002,17/06/2017,OPERATIVA,SI;
273,ZONAS WIFI GRATIS PARA LA GENTE,1,4,Región Caribe,8,Atlántico,08433,Malambo,N/A,1,PARQUE MONTECARLOS,843304003,CARRERA 1E CALLE 4B,-74.774325,10.849197,17/06/2017,OPERATIVA,SI;
274,ZONAS WIFI GRATIS PARA LA GENTE,1,4,Región Caribe,8,Atlántico,08433,Malambo,N/A,1,PARQUE DE LA CULTURA FABIO MIRANDA,843306001,CARRERA 8 CON CALLE 11A BARRIO CENTRO,-74.775611,10.857972,24/05/2017,OPERATIVA,SI;
275,ZONAS WIFI GRATIS PARA LA GENTE,1,6,Región Caribe,8,Atlántico,08436,Manatí,N/A,1,LA PLAZA PRINCIPAL,843606001,KR 4B # 7,-74.959583,10.445194,25/05/2017,OPERATIVA,SI;
276,ZONAS WIFI GRATIS PARA LA GENTE,1,6,Región Caribe,8,Atlántico,08520,Palmar de Varela,N/A,1,PLAZA PRINCIPAL,852006001,CALLE 3 CARRERA 5,-74.749667,10.74375,25/05/2017,OPERATIVA,SI;
277,ZONAS WIFI GRATIS PARA LA GENTE,1,6,Región Caribe,8,Atlántico,08549,Piojó,N/A,1,PLAZA PRINCIPAL,854904001,CARRERA 8 CON CALLE 11,-75.10798,10.747797,28/06/2017,OPERATIVA,SI;
278,ZONAS WIFI GRATIS PARA LA GENTE,1,6,Región Caribe,8,Atlántico,08549,Piojó,N/A,1,CORREGIMIENTO HIBÁCHARO,854904002,PLAZA PRINCIPAL DEL CORREGIMIENTO DE HIBACHARO PIOJO,-75.134327,10.716261,29/06/2017,OPERATIVA,SI;
279,ZONAS WIFI GRATIS PARA LA GENTE,1,6,Región Caribe,8,Atlántico,08558,Polonuevo,N/A,1,PARQUE SAN LUIS BELTRAN,855806001,CALLE 3 ENTRE CRAS. 4 Y 5 (AL LADO DE LA PARROQUIA SAN LUIS BELTRAN),-74.857528,10.7745,24/05/2017,OPERATIVA,SI;
280,ZONAS WIFI GRATIS PARA LA GENTE,1,4,Región Caribe,8,Atlántico,08573,Puerto Colombia,N/A,1,MALECON DE PUERTO COLOMBIA,857305001,CLL 1E,-74.955101,10.994989,07/07/2017,OPERATIVA,SI;
281,ZONAS WIFI GRATIS PARA LA GENTE,1,4,Región Caribe,8,Atlántico,08573,Puerto Colombia,N/A,1,PLAZA IGLESIA PTO COLOMBIA,857305002,CALLE 3 # 7-18,-74.957273,10.989182,07/07/2017,OPERATIVA,SI;
"282,ZONAS WIFI GRATIS PARA LA GENTE,1,4,Región Caribe,8,Atlántico,08573,Puerto Colombia,N/A,1,SECTOR DE CHIRINGUITO,857305003,""SALGAR, PUERTO COLOMBIA"",-74.928417,11.023139,11/07/2017,OPERATIVA,SI";
283,ZONAS WIFI GRATIS PARA LA GENTE,1,6,Región Caribe,8,Atlántico,08634,Sabanagrande,N/A,1,PARQUE ALTOS DE BETANIA,863406001,CRA 7 CLLE 16,-74.753623,10.784637,24/05/2017,OPERATIVA,SI;
284,ZONAS WIFI GRATIS PARA LA GENTE,1,6,Región Caribe,8,Atlántico,08675,Santa Lucía,N/A,1,PLAZA SON DE NEGRO,867506001,CALLE 7 CON CARRERA 10,-74.962667,10.325278,25/05/2017,OPERATIVA,SI;
285,ZONAS WIFI GRATIS PARA LA GENTE,1,6,Región Caribe,8,Atlántico,08685,Santo Tomás,N/A,1,CAMINO REAL,868506001,CALLE 35 CARRERA 11E,-74.759965,10.752617,25/05/2017,OPERATIVA,SI;
286,ZONAS WIFI GRATIS PARA LA GENTE,1,2,Región Caribe,8,Atlántico,08758,Soledad,N/A,1,CENTRO HISTORICO (PLAZA CENTRAL),875801000,CARRERA 19 CALLE 15A,-74.764377,10.915675,19/12/2016,OPERATIVA,SI;
287,ZONAS WIFI GRATIS PARA LA GENTE,1,2,Región Caribe,8,Atlántico,08758,Soledad,N/A,1,PARQUE GAVIOTAS,875804001,CALLE 54 ENTRE CARRERA 32 Y 33,-74.792463,10.925819,26/05/2017,OPERATIVA,SI;
288,ZONAS WIFI GRATIS PARA LA GENTE,1,2,Región Caribe,8,Atlántico,08758,Soledad,N/A,1,PARQUE MUVDI,875804002,CALLE 30 ENTRADA AL HIPODROMO,-74.780056,10.928124,26/05/2017,OPERATIVA,SI;
289,ZONAS WIFI GRATIS PARA LA GENTE,1,2,Región Caribe,8,Atlántico,08758,Soledad,N/A,1,POLIDEPORTIVO LOS ROBLES,875804003,CALLE 76 NO 23C 14 LOS ROBLES,-74.808886,10.921426,26/05/2017,OPERATIVA,SI;
290,ZONAS WIFI GRATIS PARA LA GENTE,1,2,Región Caribe,8,Atlántico,08758,Soledad,N/A,1,PARQUE CENTENARIO,875804004,CRA 16 CON CALLE 25 Y 26,-74.769113,10.924791,08/06/2017,OPERATIVA,SI;
291,ZONAS WIFI GRATIS PARA LA GENTE,1,2,Región Caribe,8,Atlántico,08758,Soledad,N/A,1,POLIDEPORTIVO EL HIPÓDROMO,875804005,CALLE 26 ENTRE CARRERA 28 Y 29,-74.771656,10.926402,25/05/2017,OPERATIVA,SI;
292,ZONAS WIFI GRATIS PARA LA GENTE,1,2,Región Caribe,8,Atlántico,08758,Soledad,N/A,1,PARQUE LOS ROBLES,875806001,CALLE 77 CRA 18,-74.811861,10.916333,24/05/2017,OPERATIVA,SI;
293,ZONAS WIFI GRATIS PARA LA GENTE,1,2,Región Caribe,8,Atlántico,08758,Soledad,N/A,1,PARQUE LAS MORAS,875806002,CALLE 60 CRA 20,-74.797083,10.918472,16/06/2017,OPERATIVA,SI;
294,ZONAS WIFI GRATIS PARA LA GENTE,1,2,Región Caribe,8,Atlántico,08758,Soledad,N/A,1,PARQUE HIPODROMO,875806003,CRA 30 CON CALLE 27C,-74.774167,10.928167,24/05/2017,OPERATIVA,SI;
295,ZONAS WIFI GRATIS PARA LA GENTE,1,6,Región Caribe,8,Atlántico,08770,Suan,N/A,1,PLAZA PRINCIPAL,877004001,CALLE 4A CON CRA 11,-74.881013,10.33235,08/06/2017,OPERATIVA,SI;
296,ZONAS WIFI GRATIS PARA LA GENTE,1,6,Región Caribe,8,Atlántico,08770,Suan,N/A,1,ESTADIO DE FUTBOL VÍCTOR DANILO PACHECO,877006001,CALLE 4 NO 3-109,-74.881972,10.328306,25/05/2017,OPERATIVA,SI;
297,ZONAS WIFI GRATIS PARA LA GENTE,1,6,Región Caribe,8,Atlántico,08832,Tubará,N/A,1,PLAZA GUAIMARAL,883205001,PLAZA GUAIMARAL,-74.938111,10.875222,08/07/2017,OPERATIVA,SI;
298,ZONAS WIFI GRATIS PARA LA GENTE,1,6,Región Caribe,8,Atlántico,08832,Tubará,N/A,1,PARQUE VEREDA CORRAL DE SAN LUIS,883205002,PARQUE VEREDA CORRAL DE SAN LUIS,-75.001856,10.895126,08/07/2017,OPERATIVA,SI;
299,ZONAS WIFI GRATIS PARA LA GENTE,1,6,Región Caribe,8,Atlántico,08832,Tubará,N/A,1,PLAYAS DE CAÑO DULCE,883205003,PLAYAS DE CAÑO DULCE,-75.063157,10.888277,08/07/2017,OPERATIVA,SI;
300,ZONAS WIFI GRATIS PARA LA GENTE,1,6,Región Caribe,8,Atlántico,08832,Tubará,N/A,1,PARQUE MIRADOR,883205004,CALLE 1 4C BARRIO EL LLANO,-74.975245,10.870428,27/06/2017,OPERATIVA,SI;
301,ZONAS WIFI GRATIS PARA LA GENTE,1,6,Región Caribe,8,Atlántico,08849,Usiacurí,N/A,1,PLAZA GRANADA,884904001,CALLE 16 CRA 13B,-74.97925,10.74638,08/06/2017,OPERATIVA,SI;
302,ZONAS WIFI GRATIS PARA LA GENTE,1,6,Región Caribe,8,Atlántico,08849,Usiacurí,N/A,1,PLAZA PRINCIPAL - PARQUE DE LA CONVIVENCIA,884906001,PLAZA PRINCIPAL,-74.978172,10.742287,25/05/2017,OPERATIVA,SI;
"303,ZONAS WIFI GRATIS PARA LA GENTE,1,ESP,Región Centro Oriente,11,""Bogotá, D.C."",11001,""Bogotá, D.C."",Engativa,1,PARQUE SAN ANDRÉS,1100101000,KR 102 Y 100 CON CALLE 82 Y 80,-74.110069,4.712825,15/10/2016,OPERATIVA,SI";
"305,ZONAS WIFI GRATIS PARA LA GENTE,1,ESP,Región Centro Oriente,11,""Bogotá, D.C."",11001,""Bogotá, D.C."",Barrios Unidos,1,PARQUE SIMON BOLÍVAR - UNIDAD DEPORTIVA SALITRE (UDS) PISTA BMX 1,1100104002,CALLE 63 N° 68 - 45,-74.098498,4.664629,23/05/2017,OPERATIVA,SI";
"306,ZONAS WIFI GRATIS PARA LA GENTE,1,ESP,Región Centro Oriente,11,""Bogotá, D.C."",11001,""Bogotá, D.C."",Barrios Unidos,1,PARQUE SIMON BOLÍVAR - CASCADA 1,1100104003,ENTRE CALLES 63 Y 53 Y CARRERAS 60 Y AVENIDA CARRERA 68,-74.09074,4.660727,23/05/2017,OPERATIVA,SI";
"307,ZONAS WIFI GRATIS PARA LA GENTE,1,ESP,Región Centro Oriente,11,""Bogotá, D.C."",11001,""Bogotá, D.C."",Barrios Unidos,1,PARQUE SIMON BOLÍVAR - CASCADA 2,1100104004,ENTRE CALLES 63 Y 53 Y CARRERAS 60 Y AVENIDA CARRERA 68,-74.09074,4.660727,23/05/2017,OPERATIVA,SI";
"308,ZONAS WIFI GRATIS PARA LA GENTE,1,ESP,Región Centro Oriente,11,""Bogotá, D.C."",11001,""Bogotá, D.C."",Antonio Nariño,1,PARQUE CIUDAD JARDIN - ANTONIO NARIÑO,1100104005,CALLE 19 SUR # 12-24,-74.096914,4.57975,31/05/2017,OPERATIVA,SI";
"309,ZONAS WIFI GRATIS PARA LA GENTE,1,ESP,Región Centro Oriente,11,""Bogotá, D.C."",11001,""Bogotá, D.C."",Tunjuelito,1,PARQUE EL TUNAL,1100104006,CALLE 48B SUR Y LA AVENIDA BOYACÁ,-74.134083,4.57301,31/05/2017,OPERATIVA,SI";
"310,ZONAS WIFI GRATIS PARA LA GENTE,1,ESP,Región Centro Oriente,11,""Bogotá, D.C."",11001,""Bogotá, D.C."",Tunjuelito,1,PARQUE CENTRAL PARQUE VENECIA,1100104007,DIAGONAL 49 SUR CON CARRERA 54,-74.140129,4.592445,05/06/2017,OPERATIVA,SI";
"311,ZONAS WIFI GRATIS PARA LA GENTE,1,ESP,Región Centro Oriente,11,""Bogotá, D.C."",11001,""Bogotá, D.C."",Barrios Unidos,1,PARQUE GIMNASIO DEL NORTE,1100104008,CALLE 63 B NO. 27 B - 70,-74.075474,4.653551,31/05/2017,OPERATIVA,SI";
"312,ZONAS WIFI GRATIS PARA LA GENTE,1,ESP,Región Centro Oriente,11,""Bogotá, D.C."",11001,""Bogotá, D.C."",Tunjuelito,1,PARQUE ZONAL NUEVO MUZÚ,1100104009,CARRERA 59 NO. 52ª -50 SUR,-74.147188,4.585573,31/05/2017,OPERATIVA,SI";
"313,ZONAS WIFI GRATIS PARA LA GENTE,1,ESP,Región Centro Oriente,11,""Bogotá, D.C."",11001,""Bogotá, D.C."",Rafael Uribe Uribe,1,PARQUE ESTADIO OLAYA HERRERA,1100104010,CARRERAS 24 Y 27 ENTRE LAS CALLES 27 Y 22 SUR,-74.106228,4.58354,31/05/2017,OPERATIVA,SI";
"314,ZONAS WIFI GRATIS PARA LA GENTE,1,ESP,Región Centro Oriente,11,""Bogotá, D.C."",11001,""Bogotá, D.C."",Fontibón,1,PARQUE DEL BARRIO EL RECODO,1100104011,CARRERA 123 # 13D - 47,-74.167995,4.67977,31/05/2017,OPERATIVA,SI";
"315,ZONAS WIFI GRATIS PARA LA GENTE,1,ESP,Región Centro Oriente,11,""Bogotá, D.C."",11001,""Bogotá, D.C."",Kennedy,1,PARQUE BARRIO LAS MARGARITAS,1100104012,CALLE 49 SUR TRANSVERSAL 85A,-74.176155,4.624122,31/05/2017,OPERATIVA,SI";
"316,ZONAS WIFI GRATIS PARA LA GENTE,1,ESP,Región Centro Oriente,11,""Bogotá, D.C."",11001,""Bogotá, D.C."",Barrios Unidos,1,""PARQUE SIMON BOLÍVAR -";
"RECRE-DEPORTIVO (PRD) 1 ADMINISTRACIÓN"",1100104013,TRANSVERSAL  48 # 63-65,-74.089482,4.664361,31/05/2017,OPERATIVA,SI";
"317,ZONAS WIFI GRATIS PARA LA GENTE,1,ESP,Región Centro Oriente,11,""Bogotá, D.C."",11001,""Bogotá, D.C."",Barrios Unidos,1,PARQUE SIMON BOLÍVAR - PARQUE RECRE-DEPORTIVO (PRD) 2 CICLISMO RUTA,1100104014,TRANSVERSAL  48 # 63-65,-74.088447,4.664067,31/05/2017,OPERATIVA,SI";
"318,ZONAS WIFI GRATIS PARA LA GENTE,1,ESP,Región Centro Oriente,11,""Bogotá, D.C."",11001,""Bogotá, D.C."",San Cristobal,1,PARQUE GAITAN CORTEZ,1100104015,CARRERA 4 ESTE CON CALLE 31SUR,-74.08941,4.55815,31/05/2017,OPERATIVA,SI";
"319,ZONAS WIFI GRATIS PARA LA GENTE,1,ESP,Región Centro Oriente,11,""Bogotá, D.C."",11001,""Bogotá, D.C."",Puente Aranda,1,PARQUE DEL BARRIO MILENTA,1100104016,CARRERA 55 CALLE 18 SUR,-74.124434,4.61417,31/05/2017,OPERATIVA,SI";
"320,ZONAS WIFI GRATIS PARA LA GENTE,1,ESP,Región Centro Oriente,11,""Bogotá, D.C."",11001,""Bogotá, D.C."",Suba,1,PARQUE DEL BARRIO NOGALES,1100104017,CARRERA 54 # 135-25,-74.059963,4.723204,31/05/2017,OPERATIVA,SI";
"321,ZONAS WIFI GRATIS PARA LA GENTE,1,ESP,Región Centro Oriente,11,""Bogotá, D.C."",11001,""Bogotá, D.C."",Kennedy,1,PARQUE BELLAVISTA 2 SECTOR PATIO BONITO,1100104018,CALLE 41 SUR ENTRE CARRERA 96 Y CARRERA 96 C,-74.174475,4.644734,02/06/2017,OPERATIVA,SI";
"322,ZONAS WIFI GRATIS PARA LA GENTE,1,ESP,Región Centro Oriente,11,""Bogotá, D.C."",11001,""Bogotá, D.C."",Kennedy,1,PARQUE TIMIZA,1100104019,CARRERA 72 N BIS CON CALLE 40 H SUR,-74.15358,4.610152,02/06/2017,OPERATIVA,SI";
"323,ZONAS WIFI GRATIS PARA LA GENTE,1,ESP,Región Centro Oriente,11,""Bogotá, D.C."",11001,""Bogotá, D.C."",Barrios Unidos,1,PARQUE SIMON BOLÍVAR - TEMPLETE,1100104020,ENTRE CALLES 63 Y 53 Y CARRERAS 60 Y AVENIDA CARRERA 68,-74.094162,4.660766,02/06/2017,OPERATIVA,SI";
"324,ZONAS WIFI GRATIS PARA LA GENTE,1,ESP,Región Centro Oriente,11,""Bogotá, D.C."",11001,""Bogotá, D.C."",Barrios Unidos,1,PARQUE SIMON BOLÍVAR - PARQUE INFANTIL 1-B,1100104021,ENTRE CALLES 63 Y 53 Y CARRERAS 60 Y AVENIDA CARRERA 68,-74.095028,4.659411,02/06/2017,OPERATIVA,SI";
"325,ZONAS WIFI GRATIS PARA LA GENTE,1,ESP,Región Centro Oriente,11,""Bogotá, D.C."",11001,""Bogotá, D.C."",Rafael Uribe Uribe,1,PARQUE DE MARRUECOS,1100104022,CALLE 5U NO. 48-7,-74.11671,4.554801,02/06/2017,OPERATIVA,SI";
"326,ZONAS WIFI GRATIS PARA LA GENTE,1,ESP,Región Centro Oriente,11,""Bogotá, D.C."",11001,""Bogotá, D.C."",Puente Aranda,1,PARQUE LOS SAUCES,1100104023,CALLE 29A SUR # 35-19,-74.117022,4.597113,05/06/2017,OPERATIVA,SI";
"327,ZONAS WIFI GRATIS PARA LA GENTE,1,ESP,Región Centro Oriente,11,""Bogotá, D.C."",11001,""Bogotá, D.C."",Barrios Unidos,1,""PARQUE SIMON BOLÍVAR -";
"UNIDAD DEPORTIVA SALITRE (UDS) PISTA BMX2"",1100104024,CALLE 63 N° 68 - 45,-74.098135,4.663656,02/06/2017,OPERATIVA,SI";
"328,ZONAS WIFI GRATIS PARA LA GENTE,1,ESP,Región Centro Oriente,11,""Bogotá, D.C."",11001,""Bogotá, D.C."",Usme,1,PARQUE DE LA AURORA,1100104025,CARRERA 39 NO. CALLE 71F SUR,-74.120637,4.523312,02/06/2017,OPERATIVA,SI";
"329,ZONAS WIFI GRATIS PARA LA GENTE,1,ESP,Región Centro Oriente,11,""Bogotá, D.C."",11001,""Bogotá, D.C."",Kennedy,1,PARQUE DE BELLAVISTA 1,1100104026,CALLE 41 SUR ENTRE CARRERA 96 Y CARRERA 96 C,-74.174475,4.644734,12/06/2017,OPERATIVA,SI";
"330,ZONAS WIFI GRATIS PARA LA GENTE,1,ESP,Región Centro Oriente,11,""Bogotá, D.C."",11001,""Bogotá, D.C."",Chapinero,1,PARQUE VIRREY - PLAZOLETA DE LAS FLORES,1100104027,CALLE 87 CON CARRERA 15,-74.05544,4.67344,12/06/2017,OPERATIVA,SI";
"331,ZONAS WIFI GRATIS PARA LA GENTE,1,ESP,Región Centro Oriente,11,""Bogotá, D.C."",11001,""Bogotá, D.C."",Barrios Unidos,1,PARQUE SIMON BOLÍVAR - PARQUE INFANTIL 1-A,1100104028,ENTRE CALLES 63 Y 53 Y CARRERAS 60 Y AVENIDA CARRERA 68,-74.095028,4.659411,12/06/2017,OPERATIVA,SI";
"332,ZONAS WIFI GRATIS PARA LA GENTE,1,ESP,Región Centro Oriente,11,""Bogotá, D.C."",11001,""Bogotá, D.C."",Santafé,1,PIT PARQUE DE LOS PERIODISTAS,1100104029,EJE AMBIENTAL CON CALLES 15 Y 18,-74.069442,4.601242,20/10/2017,OPERATIVA,SI";
"333,ZONAS WIFI GRATIS PARA LA GENTE,1,ESP,Región Centro Oriente,11,""Bogotá, D.C."",11001,""Bogotá, D.C."",Santafé,1,ESTACIÓN UNIVERSIDADES,1100104030,CARRERA 3 CON CALLE 20,-74.066901,4.605348,30/10/2017,OPERATIVA,SI";
"334,ZONAS WIFI GRATIS PARA LA GENTE,1,ESP,Región Centro Oriente,11,""Bogotá, D.C."",11001,""Bogotá, D.C."",Santafé,1,PARQUE SANTANDER,1100104031,CARRERA 7 CON CALLE 16,-74.072619,4.601919,29/09/2017,OPERATIVA,SI";
"335,ZONAS WIFI GRATIS PARA LA GENTE,1,ESP,Región Centro Oriente,11,""Bogotá, D.C."",11001,""Bogotá, D.C."",La Candelaria,1,PLAZOLETA DEL ROSARIO,1100104032,CARRERA 6 CON EJE AMBIENTAL,-74.072892,4.600687,29/09/2017,OPERATIVA,SI";
"336,ZONAS WIFI GRATIS PARA LA GENTE,1,ESP,Región Centro Oriente,11,""Bogotá, D.C."",11001,""Bogotá, D.C."",Kennedy,1,HOSPITAL DE KENNEDY,1100104033,AV 1 DE MAYO #40B-54,-74.153732,4.616722,25/08/2017,OPERATIVA,SI";
"337,ZONAS WIFI GRATIS PARA LA GENTE,1,ESP,Región Centro Oriente,11,""Bogotá, D.C."",11001,""Bogotá, D.C."",Antonio Nariño,1,PLAZOLETA PLAZA DE RESTREPO (CALLE PEATONAL),1100104034,CALLE 19 SUR ENTRE CARRERAS 20 Y 19,-74.101951,4.584585,09/02/2018,OPERATIVA,SI";
"338,ZONAS WIFI GRATIS PARA LA GENTE,1,ESP,Región Centro Oriente,11,""Bogotá, D.C."",11001,""Bogotá, D.C."",Los Mártires,1,PLAZA ESPAÑA,1100104035,CARRERAS 18 Y 19 Y LAS CALLE 10 A Y 11.,-74.085388,4.603652,20/10/2017,OPERATIVA,SI";
"339,ZONAS WIFI GRATIS PARA LA GENTE,1,ESP,Región Centro Oriente,11,""Bogotá, D.C."",11001,""Bogotá, D.C."",Usaquen,1,HOSPITAL SIMÓN BOLÍVAR / UPA SERVITÁ,1100104036,CALLE 165 # 7-38,-74.025788,4.742531,12/07/2017,OPERATIVA,SI";
"340,ZONAS WIFI GRATIS PARA LA GENTE,1,ESP,Región Centro Oriente,11,""Bogotá, D.C."",11001,""Bogotá, D.C."",Kennedy,1,PARQUE LA AMISTAD,1100104037,TRANSVERSAL 78 J Nº 41  40 SUR,-74.156589,4.618342,18/08/2017,OPERATIVA,SI";
365,ZONAS WIFI GRATIS PARA LA GENTE,2,6,Región Caribe,13,Bolívar,13430,Magangué,N/A,1,PARQUE DE LOS ESTUDIANTES,1343005001,CLL 16A # 10,-74.749221,9.238748,13/07/2017,OPERATIVA,SI;
"341,ZONAS WIFI GRATIS PARA LA GENTE,1,ESP,Región Centro Oriente,11,""Bogotá, D.C."",11001,""Bogotá, D.C."",Rafael Uribe Uribe,1,PARQUE COUNTRY SUR,1100104038,CARRERA 13 ENTRE CALLES 22 SUR Y 24 SUR,,4.571258,16/06/2017,OPERATIVA,SI";
"342,ZONAS WIFI GRATIS PARA LA GENTE,1,ESP,Región Centro Oriente,11,""Bogotá, D.C."",11001,""Bogotá, D.C."",La Candelaria,1,PIT CHORRO DE QUEVEDO,1100104039,CALLE 12B CARRERA 2,-74.069744,4.59735,29/09/2017,OPERATIVA,SI";
"343,ZONAS WIFI GRATIS PARA LA GENTE,1,ESP,Región Centro Oriente,11,""Bogotá, D.C."",11001,""Bogotá, D.C."",Kennedy,1,PARQUE DEL COLEGIO DE KENNEDY DISTRITAL,1100104040,CALLE 5 SUR 72A-69,-74.140823,4.619977,31/08/2017,OPERATIVA,SI";
"344,ZONAS WIFI GRATIS PARA LA GENTE,1,ESP,Región Centro Oriente,11,""Bogotá, D.C."",11001,""Bogotá, D.C."",Santafé,1,PIT CENTRO INTERNACIONAL,1100104041,CARREA 13 NO. 26  62,-74.069948,4.614121,24/08/2017,OPERATIVA,SI";
"345,ZONAS WIFI GRATIS PARA LA GENTE,1,ESP,Región Centro Oriente,11,""Bogotá, D.C."",11001,""Bogotá, D.C."",Ciudad Bolívar,1,ALAMEDA DE ARBORIZADORA ALTA,1100104042,PARQUE ARBORIZADORA ALTA CALLE 72B SUR # 42-03,-74.16444,4.56812,22/08/2017,OPERATIVA,SI";
"346,ZONAS WIFI GRATIS PARA LA GENTE,1,ESP,Región Centro Oriente,11,""Bogotá, D.C."",11001,""Bogotá, D.C."",Fontibón,1,CATAM - GRUSE 85,1100104043,CALLE 26 CON CARRERA 116,-74.15146,4.702998,29/11/2017,OPERATIVA,SI";
"347,ZONAS WIFI GRATIS PARA LA GENTE,1,ESP,Región Centro Oriente,11,""Bogotá, D.C."",11001,""Bogotá, D.C."",Santafé,1,MUSEO DE ARTE MODERNO DE BOGOTÁ,1100104044,CALLE 24 NO. 6-00,-74.069222,4.610155,29/09/2017,OPERATIVA,SI";
"348,ZONAS WIFI GRATIS PARA LA GENTE,1,ESP,Región Centro Oriente,11,""Bogotá, D.C."",11001,""Bogotá, D.C."",Teusaquillo,1,PARKWAY,1100104045,CARRERA 24 ENTRE CALLE 34 Y 45,-74.075239,4.629386,29/09/2017,OPERATIVA,SI";
"349,ZONAS WIFI GRATIS PARA LA GENTE,1,ESP,Región Centro Oriente,11,""Bogotá, D.C."",11001,""Bogotá, D.C."",La Candelaria,1,PIT CENTRO HISTÓRICO,1100104046,CARRERA 8 CALLE 9-83,-74.076818,4.597784,29/09/2017,OPERATIVA,SI";
"350,ZONAS WIFI GRATIS PARA LA GENTE,1,ESP,Región Centro Oriente,11,""Bogotá, D.C."",11001,""Bogotá, D.C."",Chapinero,1,ZONA BOSQUE CALDERÓN,1100104047,TRANSVERSAL 4B ESTE CON CALLE 59 DIRECCIÓN CANCHA,-74.053994,4.640924,08/09/2017,OPERATIVA,SI";
"351,ZONAS WIFI GRATIS PARA LA GENTE,1,ESP,Región Centro Oriente,11,""Bogotá, D.C."",11001,""Bogotá, D.C."",Chapinero,1,PARQUE EL VIRREY 2,1100104048,CALLE 87 ENTRE CARRERA 15 Y AUTOPISTA NORTE,-74.057681,4.674908,23/08/2017,OPERATIVA,SI";
"352,ZONAS WIFI GRATIS PARA LA GENTE,1,ESP,Región Centro Oriente,11,""Bogotá, D.C."",11001,""Bogotá, D.C."",Bosa,1,PLAZA FUNDACIONAL DE BOSA,1100104050,CARRERA 80 NO 61-05 SUR,-74.184704,4.610366,04/07/2017,OPERATIVA,SI";
385,ZONAS WIFI GRATIS PARA LA GENTE,1,3,Región Centro Oriente,15,Boyacá,15238,Duitama,N/A,1,PARQUE DEL CARMEN ,1523802001,CALLE 13 CON CARRERA 14,-73.036399,5.827237,31/01/2018,OPERATIVA,SI;
"353,ZONAS WIFI GRATIS PARA LA GENTE,1,ESP,Región Centro Oriente,11,""Bogotá, D.C."",11001,""Bogotá, D.C."",Suba,1,PARQUE ZONAL FONTANAR DEL RIO,1100104051,DIAGONAL 145 CON CARRERA 112,-74.108753,4.755953,23/08/2017,OPERATIVA,SI";
"354,ZONAS WIFI GRATIS PARA LA GENTE,1,ESP,Región Centro Oriente,11,""Bogotá, D.C."",11001,""Bogotá, D.C."",Ciudad Bolívar,1,PARQUE ILIMANI ,1100104052,CALLE 71P N° 27B-10- BARRIO PARAISO,-74.161114,4.548107,,OPERATIVA,SI";
"355,ZONAS WIFI GRATIS PARA LA GENTE,1,ESP,Región Centro Oriente,11,""Bogotá, D.C."",11001,""Bogotá, D.C."",Usme,1,PARQUE VALLES DE CAFAM,1100104053,CRA. 2D #91B SUR-62,-74.118506,4.508612,19/08/2017,OPERATIVA,SI";
"356,ZONAS WIFI GRATIS PARA LA GENTE,1,ESP,Región Centro Oriente,11,""Bogotá, D.C."",11001,""Bogotá, D.C."",Santafé,1,PLAZOLETA PROCURADURÍA,1100104054,CARRERA 5 # 15-80,-74.071425,4.601461,25/08/2017,OPERATIVA,SI";
"357,ZONAS WIFI GRATIS PARA LA GENTE,1,ESP,Región Centro Oriente,11,""Bogotá, D.C."",11001,""Bogotá, D.C."",Usaquen,1,PARQUE ALTABLANCA,1100104055,CALLE 156B #8-35,-74.028677,4.734323,25/08/2017,OPERATIVA,SI";
358,ZONAS WIFI GRATIS PARA LA GENTE,2,6,Región Caribe,13,Bolívar,13052,Arjona,N/A,1,PLAZA PRINCIPAL DE ARJONA,1305205001,CLL 51 # 38,-75.342717,10.254764,17/06/2017,OPERATIVA,SI;
359,ZONAS WIFI GRATIS PARA LA GENTE,2,ESP,Región Caribe,13,Bolívar,13001,Cartagena,N/A,1,PLAZA DE LA ADUANA,1300101000,CARRERA 4A # 31-2 A 31-100,-75.55,10.4225,15/10/2016,OPERATIVA,SI;
360,ZONAS WIFI GRATIS PARA LA GENTE,2,ESP,Región Caribe,13,Bolívar,13001,Cartagena,N/A,1,CANCHA SINTÉTICA LA MARIA,1300105001,CLL 46 # 30,-75.519614,10.422023,22/06/2017,OPERATIVA,SI;
361,ZONAS WIFI GRATIS PARA LA GENTE,2,ESP,Región Caribe,13,Bolívar,13001,Cartagena,N/A,1,CASA DE LA JUSTICIA CHIQUINQUIRA,1300105002,CLL 58 # 31C,-75.491704,10.406206,17/06/2017,OPERATIVA,SI;
362,ZONAS WIFI GRATIS PARA LA GENTE,2,ESP,Región Caribe,13,Bolívar,13001,Cartagena,N/A,1,CIUDAD BICENTENARIO,1300105003,SECTOR CIUDAD BICENTENARIO,-75.447668,10.425865,22/06/2017,OPERATIVA,SI;
363,ZONAS WIFI GRATIS PARA LA GENTE,2,6,Región Caribe,13,Bolívar,13268,El Peñón,N/A,1,CASA DE LA CULTURA; PARQUE INFANTIL,1326805001,CRA 9 #8,-73.950415,8.989014,26/06/2017,OPERATIVA,SI
364,ZONAS WIFI GRATIS PARA LA GENTE,2,6,Región Caribe,13,Bolívar,13430,Magangué,N/A,1,PARQUE LINEAL DE SAN MARTIN,1343001000,CALLE 15 ENTRE CARRERA 18ª Y 20,-74.76005,9.246988,15/10/2016,OPERATIVA,SI;
366,ZONAS WIFI GRATIS PARA LA GENTE,2,6,Región Caribe,13,Bolívar,13430,Magangué,N/A,1,PARQUE LAS AMERICAS,1343005002,CRA 6 # 16,-74.745692,9.235766,12/06/2017,OPERATIVA,SI;
"367,ZONAS WIFI GRATIS PARA LA GENTE,2,6,Región Caribe,13,Bolívar,13430,Magangué,N/A,1,CAI CALLE DE LAS FLOREZ,1343005003,""CALLE LAS FLORES, CALLE 11A #3"",-74.743982,9.230893,12/06/2017,OPERATIVA,SI";
368,ZONAS WIFI GRATIS PARA LA GENTE,2,6,Región Caribe,13,Bolívar,13433,Mahates,N/A,1,PARQUE CENTRAL,1343305001,CLL 18 # 36,-75.188284,10.237114,19/06/2017,OPERATIVA,SI;
369,ZONAS WIFI GRATIS PARA LA GENTE,2,6,Región Caribe,13,Bolívar,13433,Mahates,N/A,1,CORREGIMIENTO DE MALAGANA,1343305002,CORREGIMIENTO DE MALAGANA,-75.227367,10.138727,12/07/2017,OPERATIVA,SI;
370,ZONAS WIFI GRATIS PARA LA GENTE,2,6,Región Caribe,13,Bolívar,13433,Mahates,N/A,1,CANCHA DEPORTIVA,1343305003,CLL 13A # 41A,-75.193436,10.234839,19/06/2017,OPERATIVA,SI;
371,ZONAS WIFI GRATIS PARA LA GENTE,2,6,Región Caribe,13,Bolívar,13647,San Estanislao,N/A,1,BARRIO EL CARMEN,1364705001,CARRERA 40 N,-75.15854,10.398965,26/07/2017,OPERATIVA,SI;
372,ZONAS WIFI GRATIS PARA LA GENTE,2,6,Región Caribe,13,Bolívar,13647,San Estanislao,N/A,1,PARQUE CAMELLON DE LA POLA,1364705002,CRA 19 # 20,-75.148754,10.395832,19/06/2017,OPERATIVA,SI;
"373,ZONAS WIFI GRATIS PARA LA GENTE,2,6,Región Caribe,13,Bolívar,13647,San Estanislao,N/A,1,BARRIO BARRAQUILLITA SECTOR INTITUCION EDUCATIVA FELIPE PADILLA,1364705003,""CRA 14, CALLE 37 ESQUINA"",-75.147234,10.404285,27/07/2017,OPERATIVA,SI";
374,ZONAS WIFI GRATIS PARA LA GENTE,2,6,Región Caribe,13,Bolívar,13688,Santa Rosa del Sur,N/A,1,PARQUE CENTRAL,1368805001,CLL 10 # 12,-74.052026,7.962382,24/06/2017,OPERATIVA,SI;
375,ZONAS WIFI GRATIS PARA LA GENTE,2,6,Región Caribe,13,Bolívar,13688,Santa Rosa del Sur,N/A,1,CIUDADELA DE LA PAZ,1368805002,CIUDADELA DE LA PAZ,-74.059242,7.977982,24/06/2017,OPERATIVA,SI;
376,ZONAS WIFI GRATIS PARA LA GENTE,2,6,Región Caribe,13,Bolívar,13836,Turbaco,N/A,1,INSTITUCION EDUCATIVA FELIPE SANTIAGO SEDE JUAN XXIII,1383605001,CRA 5 #2,-75.405944,10.321389,20/06/2017,OPERATIVA,SI;
377,ZONAS WIFI GRATIS PARA LA GENTE,2,6,Región Caribe,13,Bolívar,13836,Turbaco,N/A,1,INSTITUCION EDUCATIVA CUARTA POZA DE MANGA SEDE HILDA MARRUGO DE AHUMADA,1383605002,CLL 14 # 30,-75.423361,10.327869,20/06/2017,OPERATIVA,SI;
"378,ZONAS WIFI GRATIS PARA LA GENTE,2,6,Región Caribe,13,Bolívar,13836,Turbaco,N/A,1,SECTOR INSTITUCION EDUCATIVA BUENA ESPERANZA SEDE BELLAVISTA,1383605003,""BARRIO PARAISO, SECTOR LAS COCAS"",-75.399623,10.330235,13/07/2017,OPERATIVA,SI";
379,ZONAS WIFI GRATIS PARA LA GENTE,2,6,Región Caribe,13,Bolívar,13836,Turbaco,N/A,1,PLAZA PRINCIPAL SAN PEDRO,1383605004,CRA. 8 #17,-75.407722,10.329561,19/06/2017,OPERATIVA,SI;
380,ZONAS WIFI GRATIS PARA LA GENTE,2,6,Región Caribe,13,Bolívar,13836,Turbaco,N/A,1,BELLAVISTA,1383605005,CLL 29,-75.408376,10.336169,04/08/2017,OPERATIVA,SI;
381,ZONAS WIFI GRATIS PARA LA GENTE,1,6,Región Centro Oriente,15,Boyacá,15162,Cerinza,N/A,1,COLISEO CUBIERTO CERINZA,1516202001,CALLE 7 NO 5-73,-72.948161,5.957608,13/05/2017,OPERATIVA,SI;
382,ZONAS WIFI GRATIS PARA LA GENTE,2,4,Región Centro Oriente,44,Boyacá,15176,Chiquinquirá,N/A,1,PARQUE JULIO FLORES,1517602001,CALLE 17 NO 7A-48,-73.815785,5.615902,03/11/2017,OPERATIVA,SI;
383,ZONAS WIFI GRATIS PARA LA GENTE,1,6,Región Centro Oriente,15,Boyacá,15180,Chiscas,N/A,1,PARQUE PRINCIPAL,1518005001,CRA. 5 #3-2 A 3-84,-72.499755,6.552441,01/06/2017,OPERATIVA,SI;
384,ZONAS WIFI GRATIS PARA LA GENTE,1,6,Región Centro Oriente,15,Boyacá,15180,Chiscas,N/A,1,PARQUE LAS MERCEDES,1518005002,CARRERA 15 A CALLE 1,-72.471604,6.573218,02/06/2017,OPERATIVA,SI;
386,ZONAS WIFI GRATIS PARA LA GENTE,1,6,Región Centro Oriente,15,Boyacá,15248,El Espino,N/A,1,PARQUE PRINCIPAL,1524805001,CALLES 5 Y 6 CARRERAS 4 Y 5,-72.496091,6.482811,02/06/2017,OPERATIVA,SI;
387,ZONAS WIFI GRATIS PARA LA GENTE,1,6,Región Centro Oriente,15,Boyacá,15248,El Espino,N/A,1,COLISEO MUNICIPAL,1524805002,CARRERA 5 CALLE 4,-72.495449,6.481625,02/06/2017,OPERATIVA,SI;
388,ZONAS WIFI GRATIS PARA LA GENTE,1,6,Región Centro Oriente,15,Boyacá,15380,La Capilla,N/A,1,POLIDEPORTIVO MUNICIPAL DE LA CAPILLA - ESTACIÓN DE POLICÍA,1538002001,CARRERA 4 # 2-06,-73.444351,5.09771,02/06/2017,OPERATIVA,SI;
389,ZONAS WIFI GRATIS PARA LA GENTE,1,6,Región Centro Oriente,15,Boyacá,15455,Miraflores,N/A,1,PARQUE PRINCIPAL,1545505001,CR 6 Y 7 CON CALLE 3 Y 4,-73.143958,5.195486,02/06/2017,OPERATIVA,SI;
390,ZONAS WIFI GRATIS PARA LA GENTE,1,6,Región Centro Oriente,15,Boyacá,15455,Miraflores,N/A,1,PLAZA DE MERCADO,1545505002,CARR: 8 CON CALLE 5 Y 6,-73.144453,5.197104,02/06/2017,OPERATIVA,SI;
391,ZONAS WIFI GRATIS PARA LA GENTE,1,6,Región Centro Oriente,15,Boyacá,15494,Nuevo Colón,N/A,1,PARQUE PRINCIPAL NUEVO COLON,1549405001,CL. 3 #4-2 A 4-106,-73.457463,5.354761,01/06/2017,OPERATIVA,SI;
392,ZONAS WIFI GRATIS PARA LA GENTE,1,6,Región Centro Oriente,15,Boyacá,15507,Otanche,N/A,1,PLAZOLETA BARRIO ACAPULCO,1550702001,CALLE 5 N° 9-30,-74.182678,5.66075,02/06/2017,OPERATIVA,SI;
393,ZONAS WIFI GRATIS PARA LA GENTE,1,6,Región Centro Oriente,15,Boyacá,15753,Soatá,N/A,1,ZONA ESTUDIANTIL,1575302001,CALLE 8 NO. 6 - 30,-72.683945,6.33443,13/05/2017,OPERATIVA,SI;
394,ZONAS WIFI GRATIS PARA LA GENTE,1,2,Región Centro Oriente,15,Boyacá,15759,Sogamoso,N/A,1,PLAZA DE LA VILLA,1575901000,CARRERA 11-12 Y CLL 11-12,-72.927888,5.715166,15/10/2016,OPERATIVA,SI;
395,ZONAS WIFI GRATIS PARA LA GENTE,1,2,Región Centro Oriente,15,Boyacá,15759,Sogamoso,N/A,1,PARQUE RECREACIONAL DEL NORTE,1575902001,CARRERA 11 CON CALLE 24 Y 26,-72.921667,5.726111,13/05/2017,OPERATIVA,SI;
396,ZONAS WIFI GRATIS PARA LA GENTE,1,2,Región Centro Oriente,15,Boyacá,15759,Sogamoso,N/A,1,PARQUE EL LAGUITO,1575902002,CALLE 11 CON CARRERA 21,-72.923611,5.723889,02/06/2017,OPERATIVA,SI;
397,ZONAS WIFI GRATIS PARA LA GENTE,1,2,Región Centro Oriente,15,Boyacá,15759,Sogamoso,N/A,1,PARQUE RECREACIONAL CONCHUCUA,1575902003,ENTRE CALLES 8 Y 9 CON CARRERA 3,-72.924296,5.710316,10/05/2017,OPERATIVA,SI;
398,ZONAS WIFI GRATIS PARA LA GENTE,1,6,Región Centro Oriente,15,Boyacá,15762,Sora,N/A,1,PARQUE PRINCIPAL,1576202001,CALLE 3 N 2-35,-73.450336,5.566006,02/06/2017,OPERATIVA,SI;
399,ZONAS WIFI GRATIS PARA LA GENTE,1,6,Región Centro Oriente,15,Boyacá,15776,Sutamarchán,N/A,1,PARQUE PRINCIPAL,1577605001,CL. 5 #4-48,-73.620527,5.620358,08/06/2017,OPERATIVA,SI;
400,ZONAS WIFI GRATIS PARA LA GENTE,1,6,Región Centro Oriente,15,Boyacá,15776,Sutamarchán,N/A,1,BARRIO LA PRIMAVERA ESCENARIO DEPORTIVO PRIMAVERA. CANCHA SINTÉTICA,1577605002,CL. 2 #2-2 A 2-11,-73.621633,5.617916,08/06/2017,OPERATIVA,SI;
401,ZONAS WIFI GRATIS PARA LA GENTE,1,6,Región Centro Oriente,15,Boyacá,15804,Tibaná,N/A,1,PARQUE PRINCIPAL,1580405001,CALLE: 6 Y 7 CARRERAS 4 Y 5,-73.397027,5.317888,01/06/2017,OPERATIVA,SI;
402,ZONAS WIFI GRATIS PARA LA GENTE,1,1,Región Centro Oriente,15,Boyacá,15001,Tunja,N/A,1,PLAZA DE BOLIVAR,1500101000,ENTRE LAS KR 9  10 Y CALLES 19 - 20,-73.361972,5.532888,15/10/2016,OPERATIVA,SI;
403,ZONAS WIFI GRATIS PARA LA GENTE,1,1,Región Centro Oriente,15,Boyacá,15001,Tunja,N/A,1,BOSQUE DE LA REPUBLICA - BOSQUE PRESIDENCIAL,1500105001,CL. 13A #10A-2 A 10A-40,-73.364444,5.527083,01/06/2017,OPERATIVA,SI;
404,ZONAS WIFI GRATIS PARA LA GENTE,1,1,Región Centro Oriente,15,Boyacá,15001,Tunja,N/A,1,PLAZOLETA MUISCA (LAS NIEVES),1500105002,CL. 26 #9-1 A 9-113,-73.359749,5.538194,01/06/2017,OPERATIVA,SI;
405,ZONAS WIFI GRATIS PARA LA GENTE,1,1,Región Centro Oriente,15,Boyacá,15001,Tunja,N/A,1,COMPLEJO DEPORTIVO SAN ANTONIO,1500105003,CL. 12 #1-12 A 1-120,-73.356611,5.520194,01/06/2017,OPERATIVA,SI;
406,ZONAS WIFI GRATIS PARA LA GENTE,1,6,Región Centro Oriente,15,Boyacá,15832,Tununguá,N/A,1,PARQUE PRINCIPAL,1583202001,CALLE 2 #2 - 15,-73.932747,5.730153,02/06/2017,OPERATIVA,SI;
407,ZONAS WIFI GRATIS PARA LA GENTE,1,5,Región Centro Oriente,15,Boyacá,15837,Tuta,N/A,1,PARQUE PRINCIPAL,1583702001,CALLE 5 NO 6 - 41,-73.227733,5.6902,29/04/2017,OPERATIVA,SI;
408,ZONAS WIFI GRATIS PARA LA GENTE,2,5,Region Eje Cafetero - Antioquia,17,Caldas,17380,La Dorada,N/A,1,POLIDEPORTIVO LAS FERIAS,1738001000,ENTRE CALLE 45  CRA 6ª,-74.676458,5.476772,19/12/2016,OPERATIVA,SI;
409,ZONAS WIFI GRATIS PARA LA GENTE,2,5,Region Eje Cafetero - Antioquia,17,Caldas,17380,La Dorada,N/A,1,POLIDEPORTIVO VICTORIA REAL LA DORADA,1738006001,CALLE 49 ENTRE CRA 11 Y 12 BARRIO VICTORIA REAL,-74.680345,5.4766,25/05/2017,OPERATIVA,SI;
410,ZONAS WIFI GRATIS PARA LA GENTE,2,5,Region Eje Cafetero - Antioquia,17,Caldas,17380,La Dorada,N/A,1,PARQUE GUARINOCITO,1738006002,AUTOPISTA MEDELLÍN - BOGOTÁ - CENTRO POBLADO GUARINOCITO,-74.736879,5.343173,06/06/2017,OPERATIVA,SI;
411,ZONAS WIFI GRATIS PARA LA GENTE,2,5,Region Eje Cafetero - Antioquia,17,Caldas,17380,La Dorada,N/A,1,PARQUE SARA LÓPEZ,1738006003,CARRERA 13 CON CALLES 13 Y 14,-74.671521,5.449772,06/06/2017,OPERATIVA,SI;
412,ZONAS WIFI GRATIS PARA LA GENTE,2,1,Region Eje Cafetero - Antioquia,17,Caldas,17001,Manizales,N/A,1,PARQUE ANTONIO NARIÑO,1700101000,CALLE 65 CON CARRERA 23,-75.486508,5.056111,15/10/2016,OPERATIVA,SI;
413,ZONAS WIFI GRATIS PARA LA GENTE,2,1,Region Eje Cafetero - Antioquia,17,Caldas,17001,Manizales,N/A,1,PARQUE BOSQUES DEL NORTE,1700106001,CALLE 48F - ENTRE CARRERAS 4G Y 4C,-75.489666,5.082066,02/06/2017,OPERATIVA,SI;
414,ZONAS WIFI GRATIS PARA LA GENTE,2,1,Region Eje Cafetero - Antioquia,17,Caldas,17001,Manizales,N/A,1,PLAZA ALFONSO LOPEZ,1700106002,ENTRE CALLES 22 Y 23 Y CARRERAS 21 Y 22 CENTRO,-75.518704,5.069963,02/06/2017,OPERATIVA,SI;
440,ZONAS WIFI GRATIS PARA LA GENTE,2,4,Región Caribe,20,Cesar,20011,Aguachica,N/A,1,PARQUE SAN ROQUE,2001101000,CARRERA 10 CON CALLE 5,-73.623736,8.310043,15/10/2016,OPERATIVA,SI;
415,ZONAS WIFI GRATIS PARA LA GENTE,2,1,Region Eje Cafetero - Antioquia,17,Caldas,17001,Manizales,N/A,1,CENTRO GALERIAS PLAZA DE MERCADO,1700106003,ENTRE CALLE 23 Y CARRERA 16 BARRIO COLON,-75.517168,5.071602,02/06/2017,OPERATIVA,SI;
416,ZONAS WIFI GRATIS PARA LA GENTE,3,5,Región Llano,85,Casanare,85010,Aguazul,N/A,1,CANCHA SINTETICA SAN CARLOS,8501001000,CARRERA 10 CON CALLE 19,-72.540897,5.17214,15/10/2016,OPERATIVA,SI;
417,ZONAS WIFI GRATIS PARA LA GENTE,3,5,Región Llano,85,Casanare,85010,Aguazul,N/A,1,PARQUE DEL ARROZ,8501002001,CALLE 23 NO 19 128,-72.542881,5.182245,06/05/2017,OPERATIVA,SI;
418,ZONAS WIFI GRATIS PARA LA GENTE,3,5,Región Llano,85,Casanare,85010,Aguazul,N/A,1,PARQUE BARRIO ARAGUANEY,8501002002,CARRERA 8 CON CARRERA 15 Y 16,-72.541722,5.168639,06/05/2017,OPERATIVA,SI;
419,ZONAS WIFI GRATIS PARA LA GENTE,3,5,Región Llano,85,Casanare,85010,Aguazul,N/A,1,PARQUE BARRIO ESPIGA,8501002003,CALLE 23 ENTRE CARRERA 15 Y 15A,-72.540806,5.17825,15/06/2017,OPERATIVA,SI;
420,ZONAS WIFI GRATIS PARA LA GENTE,3,1,Región Llano,85,Casanare,85001,Yopal,N/A,1,PARQUE LA HERRADURA,8500101000,CALLE 15 CARRERA 20,-72.397638,5.342333,15/10/2016,OPERATIVA,SI;
421,ZONAS WIFI GRATIS PARA LA GENTE,3,1,Región Llano,85,Casanare,85001,Yopal,N/A,1,PARQUE SKYPARK,8500102001,CARRERA 19 CON CALLE 36 ESQUINA,-72.390345,5.325891,06/05/2017,OPERATIVA,SI;
422,ZONAS WIFI GRATIS PARA LA GENTE,3,1,Región Llano,85,Casanare,85001,Yopal,N/A,1,COLEGIO TERESA DE CALCUTA,8500102002,CARRERA 19 CON CALLE 36 ESQUINA,-72.371698,5.324828,06/06/2017,OPERATIVA,SI;
423,ZONAS WIFI GRATIS PARA LA GENTE,3,1,Región Llano,85,Casanare,85001,Yopal,N/A,1,COLISEO VILLA LUCÍA,8500102003,CARRERA 46 ENTRE CALLE 32 Y 33,-72.368687,5.341512,02/06/2017,OPERATIVA,SI;
424,ZONAS WIFI GRATIS PARA LA GENTE,3,6,Región Pacífico,19,Cauca,19100,Bolívar,N/A,1,PARQUE DE LOS FUNDADORES,1910002001,PARQUE DE LOS FUNDADORES,-76.967741,1.83444,27/04/2017,OPERATIVA,SI;
425,ZONAS WIFI GRATIS PARA LA GENTE,3,6,Región Pacífico,19,Cauca,19142,Caloto,N/A,1,PARQUE PRINCIPAL PLAZA DE LA LIBERTAD,1914202001,CALLE 12 CON CARRERA 5,-76.40817,3.034138,26/04/2017,OPERATIVA,SI;
426,ZONAS WIFI GRATIS PARA LA GENTE,3,6,Región Pacífico,19,Cauca,19212,Corinto,N/A,1,PARQUE PRINCIPAL JOSÉ MARÍA OBANDO,1921202001,ENTRE CALLE 7 Y 7B CON CARRERA 8 Y 9,-76.262602,3.174537,26/04/2017,OPERATIVA,SI;
427,ZONAS WIFI GRATIS PARA LA GENTE,3,6,Región Pacífico,19,Cauca,19256,El Tambo,N/A,1,PARQUE PRINCIPAL,1925602001,ENTRE CALLE 1 Y 2 CON CARRERA 4 Y 5,-76.807734,2.450454,26/04/2017,OPERATIVA,SI;
428,ZONAS WIFI GRATIS PARA LA GENTE,3,5,Región Pacífico,19,Cauca,19455,Miranda,N/A,1,PARQUEJULIO FERNÁNDEZ MEDINA,1945502001,ENTRE CALLE 6 Y CALLE 7 CON CARRERA 5 Y 6,-76.22907,3.251052,27/04/2017,OPERATIVA,SI;
429,ZONAS WIFI GRATIS PARA LA GENTE,3,6,Región Pacífico,19,Cauca,19473,Morales,N/A,1,PARQUE PRINCIPAL LOS FUNDADORES,1947302001,PARQUE PRINCIPAL LOS FUNDADORES,-76.629461,2.756639,27/04/2017,OPERATIVA,SI;
430,ZONAS WIFI GRATIS PARA LA GENTE,3,2,Región Pacífico,19,Cauca,19001,Popayán,N/A,1,PLAZA DE MERCADO LA ESMERALDA,1900101000,KR 17 A 18 CON CALLE 5,-76.615277,2.444472,15/10/2016,OPERATIVA,SI;
431,ZONAS WIFI GRATIS PARA LA GENTE,3,2,Región Pacífico,19,Cauca,19001,Popayán,N/A,1,PARQUE EL RECUERDO,1900102001,CARRERA.7 ENTRE CALLES 15N Y 16N,-76.599175,2.452621,07/04/2017,OPERATIVA,SI;
432,ZONAS WIFI GRATIS PARA LA GENTE,3,2,Región Pacífico,19,Cauca,19001,Popayán,N/A,1,CENTRO UNIVERSITARIO TULCAN,1900102002,CARRERA. 2 ENTRE CALLES 10N Y 15N,-76.59852,2.44749,07/04/2017,OPERATIVA,SI;
433,ZONAS WIFI GRATIS PARA LA GENTE,3,2,Región Pacífico,19,Cauca,19001,Popayán,N/A,1,PARQUE BENITO JUAREZ,1900102003,CARRERA. 11 Y 12 ENTRE CALLES 8 Y 8A,-76.612581,2.440065,07/04/2017,OPERATIVA,SI;
434,ZONAS WIFI GRATIS PARA LA GENTE,3,5,Región Pacífico,19,Cauca,19698,Santander de Quilichao,N/A,1,PARQUE CHOLADOS,1669801000,KR 12A CON CALLE 5 A 7,-76.485451,3.008617,15/10/2016,OPERATIVA,SI;
435,ZONAS WIFI GRATIS PARA LA GENTE,3,5,Región Pacífico,19,Cauca,19698,Santander de Quilichao,N/A,1,PARQUE LAS ACACÍAS,1969802001,ENTRE CALLE 14 Y 17 CON CARRERA 6ABIS Y 7,-76.477417,3.017361,08/06/2017,OPERATIVA,SI;
436,ZONAS WIFI GRATIS PARA LA GENTE,3,5,Región Pacífico,19,Cauca,19698,Santander de Quilichao,N/A,1,PARQUE DEL ROSARIO,1969802002,ENTRE CALLE 1 Y 2A CON CARRERA 4SUR Y 5SUR,-76.478833,3.001444,25/04/2017,OPERATIVA,SI;
437,ZONAS WIFI GRATIS PARA LA GENTE,3,5,Región Pacífico,19,Cauca,19698,Santander de Quilichao,N/A,1,PARQUE SIMÓN BOLÍVAR,1969802003,ENTRE CALLE 3 Y 2ABIS CON CARRERA 6,-76.480833,3.004333,25/04/2017,OPERATIVA,SI;
438,ZONAS WIFI GRATIS PARA LA GENTE,3,6,Región Pacífico,19,Cauca,19807,Timbío,N/A,1,PARQUE PRINCIPAL BOYACÁ,1980702001,ENTRE CARRERA 16 Y 17 CON CALLE 15 Y 16,-76.682795,2.3503,10/05/2017,OPERATIVA,SI;
439,ZONAS WIFI GRATIS PARA LA GENTE,3,6,Región Pacífico,19,Cauca,19845,Villa Rica,N/A,1,PARQUE PRINCIPAL FELIX ANGEL COLORADO,1984502001,ENTRE CALLE 3 Y CALLE 4 CON CARRERA 7 Y 8,-76.460731,3.174396,10/05/2017,OPERATIVA,SI;
441,ZONAS WIFI GRATIS PARA LA GENTE,2,4,Región Caribe,20,Cesar,20011,Aguachica,N/A,1,PARQUE BARAHOJA,2001102001,CALLE 5 CON CARRERA 3,-73.630486,8.311661,10/05/2017,OPERATIVA,SI;
442,ZONAS WIFI GRATIS PARA LA GENTE,2,4,Región Caribe,20,Cesar,20011,Aguachica,N/A,1,PARQUE NUEVA COLOMBIA,2001102002,CARRERA 43 CON 5TA NORTE,-73.593167,8.317,15/06/2017,OPERATIVA,SI;
443,ZONAS WIFI GRATIS PARA LA GENTE,2,4,Región Caribe,20,Cesar,20011,Aguachica,N/A,1,PARQUE ROMERO DÍAZ,2001102003,CALLE 14 CON CARRERA 16,-73.616692,8.299667,02/06/2017,OPERATIVA,SI;
444,ZONAS WIFI GRATIS PARA LA GENTE,2,4,Región Caribe,20,Cesar,20750,San Diego,N/A,1,PLAZA PRINCIPAL FRANCISCO BECERRA,2075002001,CALLE 2C CON CARRERA 9,-73.181497,10.333839,02/06/2017,OPERATIVA,SI;
445,ZONAS WIFI GRATIS PARA LA GENTE,2,1,Región Caribe,20,Cesar,20001,Valledupar,N/A,1,PARQUE LA NEVADA,2000101000,CALLE 6 CON CARRERA 44 BARRIO LA NEVADA,-73.283166,10.476833,15/10/2016,OPERATIVA,SI;
446,ZONAS WIFI GRATIS PARA LA GENTE,2,1,Región Caribe,20,Cesar,20001,Valledupar,N/A,1,PARQUE LOS FUNDADORES,2000104001,CRA 54 N 59 64,-74.793825,10.99495,28/04/2017,OPERATIVA,SI;
447,ZONAS WIFI GRATIS PARA LA GENTE,2,1,Región Caribe,20,Cesar,20001,Valledupar,N/A,1,PARQUE ALAMOS 1,2000104002,CALLE 32 CON CARRERA 30,-73.257951,10.448309,28/04/2017,OPERATIVA,SI;
448,ZONAS WIFI GRATIS PARA LA GENTE,2,1,Región Caribe,20,Cesar,20001,Valledupar,N/A,1,POLIFUNCIONAL EL PUPO,2000104003,CARRERA 30B CON CALLE 17,-73.267439,10.456274,15/07/2017,OPERATIVA,SI;
449,ZONAS WIFI GRATIS PARA LA GENTE,2,1,Región Caribe,20,Cesar,20001,Valledupar,N/A,1,POLIFUNCIONAL 1 Y 2 / POPULANDIA,2000104004,CALLE 18B CARREA 42,-73.280168,10.447268,15/07/2017,OPERATIVA,SI;
450,ZONAS WIFI GRATIS PARA LA GENTE,2,1,Región Caribe,20,Cesar,20001,Valledupar,N/A,1,PARQUE RECREATIVO MARÍA CAMILA,2000104005,CALLE 18A CON CARRERA 38,-73.269326,10.448846,15/07/2017,OPERATIVA,SI;
451,ZONAS WIFI GRATIS PARA LA GENTE,2,1,Región Caribe,20,Cesar,20001,Valledupar,N/A,1,PARQUE 12 DE OCTUBRE,2000105001,CARRERA 15 CON CALLE 28,-73.245205,10.457235,22/04/2017,OPERATIVA,SI;
452,ZONAS WIFI GRATIS PARA LA GENTE,2,1,Región Caribe,20,Cesar,20001,Valledupar,N/A,1,PARQUE IRACAL,2000105002,ENTRE CALLE 10 Y CALLE 9B,-73.267824,10.474036,22/04/2017,OPERATIVA,SI;
453,ZONAS WIFI GRATIS PARA LA GENTE,2,1,Región Caribe,20,Cesar,20001,Valledupar,N/A,1,CIUDADELA COMFA CESAR,2000105003,MANZANA D Y MANZANA E,-73.282081,10.457849,22/04/2017,OPERATIVA,SI;
454,ZONAS WIFI GRATIS PARA LA GENTE,2,1,Región Caribe,20,Cesar,20001,Valledupar,N/A,1,PARQUE LOS MAYALES,2000105004,CALLE 32 CON CARRERA 9B,-73.23048,10.458757,22/04/2017,OPERATIVA,SI;
455,ZONAS WIFI GRATIS PARA LA GENTE,2,1,Región Caribe,20,Cesar,20001,Valledupar,N/A,1,PLAZA ALFONSO LÓPEZ 1,2000105005,CARRERA 5 CALLE 15,-73.244535,10.477591,22/04/2017,OPERATIVA,SI;
456,ZONAS WIFI GRATIS PARA LA GENTE,2,1,Región Caribe,20,Cesar,20001,Valledupar,N/A,1,PLAZA ALFONSO LÓPEZ 2,2000105006,CARRERA 5 CALLE 15,-73.244535,10.477591,22/04/2017,OPERATIVA,SI;
457,ZONAS WIFI GRATIS PARA LA GENTE,2,1,Región Caribe,20,Cesar,20001,Valledupar,N/A,1,CVD,2000105007,TRANSVERSAL 29 CON CALLE 18,-73.26553,10.454693,22/04/2017,OPERATIVA,SI;
458,ZONAS WIFI GRATIS PARA LA GENTE,2,1,Región Caribe,20,Cesar,20001,Valledupar,N/A,1,PARQUE MIRADOR DE LA SIERRA,2000105008,MIRADOR DE LA SIERRA,-73.275987,10.490164,22/04/2017,OPERATIVA,SI;
459,ZONAS WIFI GRATIS PARA LA GENTE,2,1,Región Caribe,20,Cesar,20001,Valledupar,N/A,1,PARQUE ALTOS DE GARUPAL,2000105009,CALLE 11B CON MANZANA Z 2,-73.267113,10.472567,22/04/2017,OPERATIVA,SI;
460,ZONAS WIFI GRATIS PARA LA GENTE,2,1,Región Caribe,20,Cesar,20001,Valledupar,N/A,1,PARQUE DON ALBERTO,2000105010,TRANSVERSAL 42A CON CALLE 13BIS2,-73.282716,10.464791,22/04/2017,OPERATIVA,SI;
"461,ZONAS WIFI GRATIS PARA LA GENTE,2,1,Región Caribe,20,Cesar,20001,Valledupar,N/A,1,FUENTE DE LA 9A,2000105011,""CALLE 8, CARRERA 11"",-73.25559,10.48475,22/04/2017,OPERATIVA,SI";
462,ZONAS WIFI GRATIS PARA LA GENTE,2,1,Región Caribe,20,Cesar,20001,Valledupar,N/A,1,PARQUE VALLE MEZA,2000105012,CALLE 43 CARRERA 18E,-73.244973,10.446982,22/04/2017,OPERATIVA,SI;
463,ZONAS WIFI GRATIS PARA LA GENTE,2,1,Región Caribe,20,Cesar,20001,Valledupar,N/A,1,POLIFUNCIONAL LAS PALMAS,2000105013,DIAGONAL 20B CARRERA 40,-73.235721,10.465599,22/06/2017,OPERATIVA,SI;
464,ZONAS WIFI GRATIS PARA LA GENTE,2,1,Región Caribe,20,Cesar,20001,Valledupar,N/A,1,PARQUE DE LOS CORTIJOS,2000105014,CRA 19A ENTRE CALLES 9C Y 10,-73.262126,10.476424,24/06/2017,OPERATIVA,SI;
465,ZONAS WIFI GRATIS PARA LA GENTE,2,1,Región Caribe,20,Cesar,20001,Valledupar,N/A,1,MICRO TIERRA LA BOMBONERA,2000105015,CARRERA 4G CON CALLE 20B,-73.238521,10.469099,19/08/2017,OPERATIVA,SI;
466,ZONAS WIFI GRATIS PARA LA GENTE,2,1,Región Caribe,20,Cesar,20001,Valledupar,N/A,1,MERCADO PUBLICO POPULAR,2000105016,AVENIDA PASTRANA ENTRE CALLES 20 Y 21,-73.24769,10.464481,26/06/2017,OPERATIVA,SI;
467,ZONAS WIFI GRATIS PARA LA GENTE,2,1,Región Caribe,20,Cesar,20001,Valledupar,N/A,1,PARQUE DE LAS MADRES,2000105017,CARRERA 19 CON 15,-73.247311,10.476169,22/06/2017,OPERATIVA,SI;
468,ZONAS WIFI GRATIS PARA LA GENTE,2,1,Región Caribe,20,Cesar,20001,Valledupar,N/A,1,LA GALERIA POPULAR,2000105018,CARRERA 7 ENTRE CALLES 18A Y 18B,-73.242898,10.473075,13/07/2017,OPERATIVA,SI;
469,ZONAS WIFI GRATIS PARA LA GENTE,2,1,Región Caribe,20,Cesar,20001,Valledupar,N/A,1,PARQUE DE DON CARMELO,2000105019,CALLE 50 CON CARRERA 31,-73.260249,10.442318,18/01/2017,OPERATIVA,SI;
470,ZONAS WIFI GRATIS PARA LA GENTE,2,1,Región Caribe,20,Cesar,20001,Valledupar,N/A,1,PARQUE GARUPAL,2000105020,ENTRE CALLE 12 Y 13 CON KRA 20 Y 23,-73.26637,10.471326,22/06/2017,OPERATIVA,SI;
"471,ZONAS WIFI GRATIS PARA LA GENTE,2,1,Región Caribe,20,Cesar,20001,Valledupar,N/A,1,POLIDEPORTIVO SAN FERNANDO,2000105021,""CARRERA 5, CALLE 45"",-73.232745,10.449375,13/07/2017,OPERATIVA,SI";
472,ZONAS WIFI GRATIS PARA LA GENTE,2,1,Región Caribe,20,Cesar,20001,Valledupar,N/A,1,POLIDEPORTIVO PANAMÁ,2000105022,CALLE 42 Y 43 Y CARRERAS 5 Y 6,-73.239263,10.448215,27/04/2018,OPERATIVA,SI;
473,ZONAS WIFI GRATIS PARA LA GENTE,2,1,Región Caribe,20,Cesar,20001,Valledupar,N/A,1,PARQUE 25 DE DICIEMBRE,2000105023,CARRERA 19 CALLE 55,-73.246164,10.439685,12/07/2017,OPERATIVA,SI;
474,ZONAS WIFI GRATIS PARA LA GENTE,2,1,Región Caribe,20,Cesar,20001,Valledupar,N/A,1,PARQUE 1 DE MAYO,2000105024,CALLE 22B CON CARRERAS 19 Y 20,-73.253115,10.459451,26/06/2017,OPERATIVA,SI;
475,ZONAS WIFI GRATIS PARA LA GENTE,2,1,Región Caribe,20,Cesar,20001,Valledupar,N/A,1,PARQUE LAS MARÍAS,2000105025,CARRERA 19 NO 1A - 50,-73.26494,10.489467,13/07/2017,OPERATIVA,SI;
476,ZONAS WIFI GRATIS PARA LA GENTE,2,1,Región Caribe,20,Cesar,20001,Valledupar,N/A,1,POLIDEPORTIVO VILLA MIRIAN 2,2000105026,PARQUE VILLA MIRIAM 2,-73.270874,10.453182,28/06/2017,OPERATIVA,SI;
477,ZONAS WIFI GRATIS PARA LA GENTE,2,1,Región Caribe,20,Cesar,20001,Valledupar,N/A,1,LAS FLORES,2000105027,CARRERA 19C CON CALLE 13B BIS,-73.261881,10.47045,21/06/2017,OPERATIVA,SI;
478,ZONAS WIFI GRATIS PARA LA GENTE,2,1,Región Caribe,20,Cesar,20001,Valledupar,N/A,1,PARQUE LOS ALGARROBILLOS - ZONA 2,2000105028,CALLE 30 ENTRE KRA 5TA Y 5A.,-73.235537,10.456892,24/06/2017,OPERATIVA,SI;
479,ZONAS WIFI GRATIS PARA LA GENTE,2,1,Región Caribe,20,Cesar,20001,Valledupar,N/A,1,COMPLEJO DE TENIS,2000105029,CARRERA 19 C CON CALLE 13B BIS,-73.261127,10.472528,28/06/2017,OPERATIVA,SI;
480,ZONAS WIFI GRATIS PARA LA GENTE,2,1,Región Caribe,20,Cesar,20001,Valledupar,N/A,1,FUTSALA / PARQUE ALAMOS 3,2000105030,CALLE18E CON CARRERA 34,-73.26628,10.447918,07/09/2017,OPERATIVA,SI;
481,ZONAS WIFI GRATIS PARA LA GENTE,2,1,Región Caribe,20,Cesar,20001,Valledupar,N/A,1,POLIFUNCIONAL EL MANANTIAL,2000105031,TRANSVERSAL 29 CON 18,-73.267596,10.454534,22/06/2017,OPERATIVA,SI;
482,ZONAS WIFI GRATIS PARA LA GENTE,2,1,Región Caribe,20,Cesar,20001,Valledupar,N/A,1,POLIFUNCIONAL / PARQUE EL CENTRO EL CERRITO,2000105032,CALLE 16A CON CARRERA 23 BIS,-73.266616,10.46387,28/06/2017,OPERATIVA,SI;
483,ZONAS WIFI GRATIS PARA LA GENTE,2,1,Región Caribe,20,Cesar,20001,Valledupar,N/A,1,PARQUE LINEAL 1,2000105033,CARRERA 4TA | BALNEAREO HURTADO,-73.269901,10.50083,13/07/2017,OPERATIVA,SI;
484,ZONAS WIFI GRATIS PARA LA GENTE,2,1,Región Caribe,20,Cesar,20001,Valledupar,N/A,1,PARQUE LINEAL 2,2000105034,CARRERA 4TA | BALNEAREO HURTADO,-73.268233,10.501506,05/09/2017,OPERATIVA,SI;
485,ZONAS WIFI GRATIS PARA LA GENTE,2,1,Región Caribe,20,Cesar,20001,Valledupar,N/A,1,PARQUE LINEAL 3,2000105035,CARRERA 4TA | BALNEAREO HURTADO,-73.265098,10.499762,28/12/2017,OPERATIVA,SI;
486,ZONAS WIFI GRATIS PARA LA GENTE,2,1,Región Caribe,20,Cesar,20001,Valledupar,N/A,1,PARQUE LA VALLENATA,2000105036,CARRERA 31 CON CALLE 20 B,-73.262205,10.449176,21/06/2017,OPERATIVA,SI;
487,ZONAS WIFI GRATIS PARA LA GENTE,2,1,Región Caribe,20,Cesar,20001,Valledupar,N/A,1,COLISEO CUBIERTO,2000105037,CARRERA 19 C CON CALLE 11,-73.261795,10.474301,23/06/2017,OPERATIVA,SI;
488,ZONAS WIFI GRATIS PARA LA GENTE,2,1,Región Caribe,20,Cesar,20001,Valledupar,N/A,1,PARQUE RECREATIVO / VILLA MIRIAM 1,2000105038,CALLE 18 CARRERA 32 B,-73.270598,10.451619,22/06/2017,OPERATIVA,SI;
489,ZONAS WIFI GRATIS PARA LA GENTE,2,1,Región Caribe,20,Cesar,20001,Valledupar,N/A,1,POLIFUNCIONAL - PARQUE ENEAL,2000105039,TRANSVERSAL 28 CON CALLE 12A,-73.269441,10.46994,24/06/2017,OPERATIVA,SI;
490,ZONAS WIFI GRATIS PARA LA GENTE,2,1,Región Caribe,20,Cesar,20001,Valledupar,N/A,1,PARQUE NUEVO MILENIO,2000105040,CALLE 49 CON CARRERA 23,-73.250572,10.441689,29/06/2017,OPERATIVA,SI;
